root@sensorgw-imx6q:~# cat /dev/ttyUSB1
$GPVTG,,T,,M,,N,,K,N*2C


$GPGSA,A,1,,,,,,,,,,,,,,,*1E


$GPGGA,,,,,,0,,,,,,,,*66


$GPRMC,,V,,,,,,,,,,N*53


$GPGSV,1,1,01,26,,,38*77


$GPVTG,,T,,M,,N,,K,N*2C


$GPGSA,A,1,,,,,,,,,,,,,,,*1E


$GPGGA,,,,,,0,,,,,,,,*66


$GPRMC,,V,,,,,,,,,,N*53


$GPGSV,1,1,02,26,,,38,31,,,42*70


$GPVTG,,T,,M,,N,,K,N*2C


$GPGSA,A,1,,,,,,,,,,,,,,,*1E


$GPGGA,,,,,,0,,,,,,,,*66


$GPRMC,,V,,,,,,,,,,N*53


$GPGSV,1,1,02,26,,,40,31,,,42*7F


$GPVTG,,T,,M,,N,,K,N*2C


$GPGSA,A,1,,,,,,,,,,,,,,,*1E


$GPGGA,,,,,,0,,,,,,,,*66


$GPRMC,,V,,,,,,,,,,N*53


$GPGSV,1,1,04,26,,,40,31,,,42,42,,,37,50,,,36*7B


$GPVTG,,T,,M,,N,,K,N*2C


$GPGSA,A,1,,,,,,,,,,,,,,,*1E


$GPGGA,,,,,,0,,,,,,,,*66


$GPRMC,,V,,,,,,,,,,N*53


$GPGSV,1,1,04,26,,,40,31,,,42,42,,,37,50,,,38*75


$GPVTG,,T,,M,,N,,K,N*2C


$GPGSA,A,1,,,,,,,,,,,,,,,*1E


$GPGGA,,,,,,0,,,,,,,,*66


$GPRMC,,V,,,,,,,,,,N*53


$GPGSV,1,1,04,26,,,40,31,,,42,42,,,37,50,,,37*7A


$GPVTG,,T,,M,,N,,K,N*2C


$GPGSA,A,1,,,,,,,,,,,,,,,*1E


$GPGGA,,,,,,0,,,,,,,,*66


$GPRMC,,V,,,,,,,,,,N*53


$GPGSV,1,1,04,26,,,40,31,,,42,42,,,37,50,,,37*7A


$GPVTG,,T,,M,,N,,K,N*2C


$GPGSA,A,1,,,,,,,,,,,,,,,*1E


$GPGGA,,,,,,0,,,,,,,,*66


$GPRMC,,V,,,,,,,,,,N*53


$GPGSV,1,1,04,26,,,40,31,,,42,42,,,37,50,,,37*7A


$GPVTG,,T,,M,,N,,K,N*2C


$GPGSA,A,1,,,,,,,,,,,,,,,*1E


$GPGGA,,,,,,0,,,,,,,,*66


$GPRMC,,V,,,,,,,,,,N*53


$GPGSV,1,1,04,26,,,40,31,,,43,42,,,37,50,,,38*74


$GPVTG,,T,,M,,N,,K,N*2C


$GPGSA,A,1,,,,,,,,,,,,,,,*1E


$GPGGA,,,,,,0,,,,,,,,*66


$GPRMC,,V,,,,,,,,,,N*53


$GPGSV,1,1,04,26,,,41,31,,,42,42,,,37,50,,,37*7B


$GPVTG,,T,,M,,N,,K,N*2C


$GPGSA,A,1,,,,,,,,,,,,,,,*1E


$GPGGA,,,,,,0,,,,,,,,*66


$GPRMC,,V,,,,,,,,,,N*53


$GPGSV,1,1,04,26,,,40,31,,,42,42,,,35,50,,,36*79


$GPVTG,,T,,M,,N,,K,N*2C


$GPGSA,A,1,,,,,,,,,,,,,,,*1E


$GPGGA,,,,,,0,,,,,,,,*66


$GPRMC,,V,,,,,,,,,,N*53


$GPGSV,1,1,04,26,,,40,31,,,42,42,,,37,50,,,37*7A


$GPVTG,,T,,M,,N,,K,N*2C


$GPGSA,A,1,,,,,,,,,,,,,,,*1E


$GPGGA,,,,,,0,,,,,,,,*66


$GPRMC,,V,,,,,,,,,,N*53


$GPGSV,1,1,04,26,,,40,31,,,42,42,,,37,50,,,37*7A


$GPVTG,,T,,M,,N,,K,N*2C


$GPGSA,A,1,,,,,,,,,,,,,,,*1E


$GPGGA,,,,,,0,,,,,,,,*66


$GPRMC,,V,,,,,,,,,,N*53


$GPGSV,1,1,04,26,,,40,31,,,42,42,,,38,50,,,37*75


$GPVTG,,T,,M,,N,,K,N*2C


$GPGSA,A,1,,,,,,,,,,,,,,,*1E


$GPGGA,,,,,,0,,,,,,,,*66


$GPRMC,,V,,,,,,,,,,N*53


$GPGSV,1,1,04,26,,,40,31,,,42,42,,,37,50,,,37*7A


$GPVTG,,T,,M,,N,,K,N*2C


$GPGSA,A,1,,,,,,,,,,,,,,,*1E


$GPGGA,,,,,,0,,,,,,,,*66


$GPRMC,,V,,,,,,,,,,N*53


$GPGSV,2,1,05,04,,,34,26,,,40,31,,,41,42,,,38*76


$GPGSV,2,2,05,50,,,37*7D


$GPVTG,,T,,M,,N,,K,N*2C


$GPGSA,A,1,,,,,,,,,,,,,,,*1E


$GPGGA,,,,,,0,,,,,,,,*66


$GPRMC,,V,,,,,,,,,,N*53


$GPGSV,2,1,05,04,,,39,26,,,40,31,,,41,42,,,37*74


$GPGSV,2,2,05,50,,,37*7D


$GPVTG,,T,,M,,N,,K,N*2C


$GPGSA,A,1,,,,,,,,,,,,,,,*1E


$GPGGA,,,,,,0,,,,,,,,*66


$GPRMC,,V,,,,,,,,,,N*53


$GPGSV,2,1,05,04,,,36,26,,,40,31,,,41,42,,,37*7B


$GPGSV,2,2,05,50,,,37*7D


$GPVTG,,T,,M,,N,,K,N*2C


$GPGSA,A,1,,,,,,,,,,,,,,,*1E


$GPGGA,,,,,,0,,,,,,,,*66


$GPRMC,,V,,,,,,,,,,N*53


$GPGSV,2,1,05,04,,,36,26,,,39,31,,,42,42,,,38*79


$GPGSV,2,2,05,50,,,37*7D


$GPVTG,,T,,M,,N,,K,N*2C


$GPGSA,A,1,,,,,,,,,,,,,,,*1E


$GPGGA,,,,,,0,,,,,,,,*66


$GPRMC,,V,,,,,,,,,,N*53


$GPGSV,2,1,06,04,,,36,16,,,27,26,,,40,31,,,42*7B


$GPGSV,2,2,06,42,,,37,50,,,37*7C


$GPVTG,,T,,M,,N,,K,N*2C


$GPGSA,A,1,,,,,,,,,,,,,,,*1E


$GPGGA,,,,,,0,,,,,,,,*66


$GPRMC,,V,,,,,,,,,,N*53


$GPGSV,2,1,06,04,,,36,16,,,27,26,,,39,31,,,42*75


$GPGSV,2,2,06,42,,,37,50,,,38*73


$GPVTG,,T,,M,,N,,K,N*2C


$GPGSA,A,1,,,,,,,,,,,,,,,*1E


$GPGGA,,,,,,0,,,,,,,,*66


$GPRMC,,V,,,,,,,,,,N*53


$GPGSV,2,1,06,04,,,36,16,,,29,26,,,39,31,,,43*7A


$GPGSV,2,2,06,42,,,37,50,,,37*7C


$GPVTG,,T,,M,,N,,K,N*2C


$GPGSA,A,1,,,,,,,,,,,,,,,*1E


$GPGGA,,,,,,0,,,,,,,,*66


$GPRMC,,V,,,,,,,,,,N*53


$GPGSV,2,1,06,04,,,34,16,,,28,26,,,39,31,,,43*79


$GPGSV,2,2,06,42,,,37,50,,,37*7C


$GPVTG,,T,,M,,N,,K,N*2C


$GPGSA,A,1,,,,,,,,,,,,,,,*1E


$GPGGA,,,,,,0,,,,,,,,*66


$GPRMC,,V,,,,,,,,,,N*53


$GPGSV,2,1,06,04,,,34,16,,,28,26,,,39,31,,,43*79


$GPGSV,2,2,06,42,,,37,50,,,37*7C


$GPVTG,,T,,M,,N,,K,N*2C


$GPGSA,A,1,,,,,,,,,,,,,,,*1E


$GPGGA,,,,,,0,,,,,,,,*66


$GPRMC,,V,,,,,,,,,,N*53


$GPGSV,2,1,06,04,,,33,16,,,28,26,,,38,31,,,43*7F


$GPGSV,2,2,06,42,,,37,50,,,37*7C


$GPVTG,,T,,M,,N,,K,N*2C


$GPGSA,A,1,,,,,,,,,,,,,,,*1E


$GPGGA,,,,,,0,,,,,,,,*66


$GPRMC,,V,,,,,,,,,,N*53


$GPGSV,4,1,14,04,,,32,16,62,351,27,26,45,039,38,31,30,104,43*4A


$GPGSV,4,2,14,03,03,237,,08,23,203,,09,19,314,,14,13,160,*73


$GPGSV,4,3,14,21,14,074,,22,,,,23,49,282,,27,60,181,*41


$GPGSV,4,4,14,42,,,37,50,,,37*7F


$GPVTG,,T,,M,,N,,K,N*2C


$GPGSA,A,1,,,,,,,,,,,,,,,*1E


$GPGGA,,,,,,0,,,,,,,,*66


$GPRMC,,V,,,,,,,,,,N*53


$GPGSV,4,1,14,04,,,32,16,62,351,27,26,45,039,38,31,30,104,43*4A


$GPGSV,4,2,14,03,03,237,,08,23,203,,09,19,314,,14,13,160,*73


$GPGSV,4,3,14,21,14,074,,22,,,,23,49,282,,27,60,181,*41


$GPGSV,4,4,14,42,,,37,50,,,37*7F


$GPVTG,,T,,M,,N,,K,N*2C


$GPGSA,A,1,,,,,,,,,,,,,,,*1E


$GPGGA,,,,,,0,,,,,,,,*66


$GPRMC,,V,,,,,,,,,,N*53


$GPGSV,4,1,14,04,,,32,16,62,351,29,26,45,039,38,31,30,104,43*44


$GPGSV,4,2,14,03,03,237,,08,23,203,,09,19,314,,14,13,160,*73


$GPGSV,4,3,14,21,14,074,,22,,,,23,49,282,,27,60,181,*41


$GPGSV,4,4,14,42,,,36,50,,,37*7E


$GPVTG,,T,,M,,N,,K,N*2C


$GPGSA,A,1,,,,,,,,,,,,,,,*1E


$GPGGA,,,,,,0,,,,,,,,*66


$GPRMC,,V,,,,,,,,,,N*53


$GPGSV,4,1,14,04,,,29,09,19,314,28,14,13,160,25,16,62,351,29*43


$GPGSV,4,2,14,26,45,039,37,31,30,104,43,03,03,237,,08,23,203,*7C


$GPGSV,4,3,14,21,14,074,,22,,,,23,49,282,,27,60,181,*41


$GPGSV,4,4,14,42,,,37,50,,,37*7F


$GPVTG,,T,,M,,N,,K,N*2C


$GPGSA,A,1,,,,,,,,,,,,,,,*1E


$GPGGA,,,,,,0,,,,,,,,*66


$GPRMC,,V,,,,,,,,,,N*53


$GPGSV,4,1,14,04,,,24,09,19,314,28,14,13,160,24,16,62,351,29*4F


$GPGSV,4,2,14,21,14,074,26,23,49,282,25,26,45,039,36,27,60,181,32*78


$GPGSV,4,3,14,31,30,104,44,03,03,237,,08,23,203,,22,,,*41


$GPGSV,4,4,14,42,,,37,50,,,37*7F


$GPVTG,,T,,M,,N,,K,N*2C


$GPGSA,A,1,,,,,,,,,,,,,,,*1E


$GPGGA,,,,,,0,,,,,,,,*66


$GPRMC,,V,,,,,,,,,,N*53


$GPGSV,4,1,14,04,,,22,09,19,314,27,14,13,160,24,16,62,351,30*4E


$GPGSV,4,2,14,21,14,074,27,23,49,282,25,26,45,039,36,27,60,181,31*7A


$GPGSV,4,3,14,31,30,104,44,03,03,237,,08,23,203,,22,,,*41


$GPGSV,4,4,14,42,,,36,50,,,37*7E


$GPGGA,032415.00,3205.111811,N,11846.371184,E,1,05,1.6,-15.6,M,2.0,M,,*4D


$GPVTG,0.0,T,4.7,M,0.0,N,0.0,K,A*20


$GPRMC,032415.00,A,3205.111811,N,11846.371184,E,0.0,0.0,070518,4.7,W,A*21


$GPGSA,A,2,14,16,26,27,31,,,,,,,,1.8,1.6,0.9*35


$GPGSV,4,1,14,03,03,237,20,04,,,23,09,19,314,24,14,13,160,23*48


$GPGSV,4,2,14,16,62,351,28,21,14,074,27,23,49,282,25,26,45,039,36*7D


$GPGSV,4,3,14,27,60,181,30,31,30,104,43,08,23,203,,22,,,*48


$GPGSV,4,4,14,42,,,36,50,,,37*7E


$GPGGA,032416.00,3205.110382,N,11846.368959,E,1,05,1.6,-10.2,M,2.0,M,,*4F


$GPVTG,0.0,T,4.7,M,0.0,N,0.0,K,A*20


$GPRMC,032416.00,A,3205.110382,N,11846.368959,E,0.0,0.0,070518,4.7,W,A*22


$GPGSA,A,2,14,16,26,27,31,,,,,,,,1.8,1.6,0.9*35


$GPGSV,4,1,14,03,03,237,19,04,,,22,09,19,314,25,14,13,160,23*42


$GPGSV,4,2,14,16,62,351,28,21,14,074,26,23,49,282,25,26,45,039,36*7C


$GPGSV,4,3,14,27,60,181,28,31,30,104,44,08,23,203,,22,,,*46


$GPGSV,4,4,14,42,,,36,50,,,37*7E


$GPGGA,032417.00,3205.110584,N,11846.365887,E,1,05,1.6,-11.7,M,2.0,M,,*45


$GPVTG,0.0,T,4.7,M,0.0,N,0.0,K,A*20


$GPRMC,032417.00,A,3205.110584,N,11846.365887,E,0.0,0.0,070518,4.7,W,A*2C


$GPGSA,A,2,14,16,26,27,31,,,,,,,,1.8,1.6,0.9*35


$GPGSV,4,1,14,03,03,237,20,04,,,21,09,19,314,23,14,13,160,22*4C


$GPGSV,4,2,14,16,62,351,30,21,14,074,29,23,49,282,25,26,45,039,35*79


$GPGSV,4,3,14,27,60,181,27,31,30,104,43,08,23,203,,22,,,*4E


$GPGSV,4,4,14,42,,,36,50,,,37*7E


$GPGGA,032418.00,3205.111981,N,11846.362647,E,1,05,1.6,-15.5,M,2.0,M,,*41


$GPVTG,0.0,T,4.7,M,0.0,N,0.0,K,A*20


$GPRMC,032418.00,A,3205.111981,N,11846.362647,E,0.0,0.0,070518,4.7,W,A*2E


$GPGSA,A,2,14,16,26,27,31,,,,,,,,1.8,1.6,0.9*35


$GPGSV,4,1,14,03,03,237,20,04,,,21,09,19,314,22,14,13,160,22*4D


$GPGSV,4,2,14,16,62,351,29,21,14,074,28,23,49,282,25,26,45,039,35*70


$GPGSV,4,3,14,27,60,181,27,31,30,104,44,08,23,203,,22,,,*49


$GPGSV,4,4,14,42,,,37,50,,,36*7E


$GPGGA,032419.00,3205.112673,N,11846.361083,E,1,05,1.6,-16.3,M,2.0,M,,*49


$GPVTG,0.0,T,4.7,M,0.0,N,0$GPV,N,,K,N$GPGSGA,,0$GPR,1,04,,,,,,50,,,,,,E,*1E,,,,,06,42,TPGSAV,2,1N,,K2,1,10431414,,181,,,,37F







49,,,36,,027,3,04,242,11841.6,25,2,3144,13A,03,T,4,,,,,T,4,,T,,,T,,,T,,,T,,,T,,,T,,,T,,,T,,,T,,,T,,,T,,,T,,,T,,,T,,,T,,,T,,,T,,,T,,,T,,,T,,,T,,,T,,,T,,,T,,,T,,,T,,,T,,,T,,,T,,,T,,,T,,,T,,,T,,,T,,,T,,,T,,,T,,,T,,,T,,,T,,,T,,,T,,,T,,,T,,,T,,,T,,,T,,,T,,,T,,,T,,,T,,,T,,,T,,,T,,,T,,,T,,,T,,,T,,,T,,,T,,,T,,,T,,,T,,,T,,,T,,,T,,,T,,,T,,,T,,,T,,,T,,,T,,,T,,,T,,,T,,,T,,,T,,,T,,,T,,,T,,,T,,,T,,,T,,,T,,,T,,,T,,,T,,,T,,,T,,,T,,,T,,,T,,,T,,,T,,,T,,,T,,,T,,,T,,,T,,,T,,,T,,,T,,,T,,,T,,,T,,,T,,,T,,,T,,,T,,,T,,,T,,,T,,,T,,,T,,,T,,,T,,,T,,,T,,,T,,,T,,,T,,,T,,,T,,,T,,,T,,,T,,,T,,,T,,,T,,,T,,,T,,,T,,,T,,,T,,,T,,,T,,,T,,,T,,,T,,,T,,,T,,,T,,,T,,,T,,,T,,,T,,,T,,,T,,,T,,,T,,,T,,,T,,,T,,,T,,,T,,,T,,,T,,,T,,,T,,,T,,,T,,,T,,,T,,,T,,,T,,,T,,,T,,,T,,,T,,,T,,,T,,,T,,,T,,,T,,,T,,,T,,,T,,,T,,,T,,,T,,,T,,,T,,,T,,,T,,,T,,,T,,,T,,,T,,,T,,,T,,,T,,,T,,,T,,,T,,,T,,,T,,,T,,,T,,,T,,,T,,,T,,,T,,,T,,,T,,,T,,,T,,,T,,,T,,,T,,,T,,,T,,,T,,,T,,,T,,,T,,,T,,,T,,,T,,,T,,,T,,,T,,,T,,,T,,,T,,,T,,,T,,,T,,,T,,,T,,,T,,,T,,,T,,,T,,,T,,,T,,,T,,,T,,,T,,,T,,,T,,,T,,,T,,,T,,,T,,,T,,,T,,,T,,,T,,,T,,,T,,,T,,,T,,,T,,,T,,,T,,,T,,,T,,,T,,,T,,,T,,,T,,,T,,,T,,,T,,,T,,,T,,,T,,,T,,,T,,,T,,,T,,,T,,,T,,,T,,,T,,,T,,,T,,,T,,,T,,,T,,,T,,,T,,,T,,,T,,,T,,,T,,,T,,,T,,,T,,,T,,,T,,,T,,,T,,,T,,,T,,,T,,,T,,,T,,,T,,,T,,,T,,,T,,,T,,,T,,,T,,,T,,,T,,,T,,,T,,,T,,,T,,,T,,,T,,,T,,,T,,,T,,,T,,,T,,,T,,,T,,,T,,,T,,,T,,,T,,,T,,,T,,,T,,,T,,,T,,,T,,,T,,,T,,,T,,,T,,,T,,,T,,,T,,,T,,,T,,,T,,,T,,,T,,,T,,,T,,,T,,,T,,,T,,,T,,,T,,,T,,,T,,,T,,,T,,,T,,,T,,,T,,,T,,,T,,,T,,,T,,,T,,,T,,,T,,,T,,,T,,,T,,,T,,,T,,,T,,,T,,,T,,,T,,,T,,,T,,,T,,,T,,,T,,,T,,,T,,,T,,,T,,,T,,,T,,,T,,,T,,,T,,,T,,,T,,,T,,,T,,,T,,,T,,,T,,,T,,,T,,,T,,,T,,,T,,,T,,,T,,,T,,,T,,,T,,,T,,,T,,,T,,,T,,,T,,,T,,,T,,,T,,,T,,,T,$GPGSV,4,1,14,04,,,34,08,23,203,24,09,19,314,28,14,13,160,21*4A


$GPGSV,4,2,14,26,45,039,39,27,60,181,23,31,30,104,43,03,03,237,*70


$GPGSV,4,3,14,16,62,352,,21,14,074,,22,,,,23,49,282,*4D


$GPGSV,4,4,14,42,,,37,50,,,36*7E


$GPGGA,032540.00,3205.103058,N,11846.355485,E,1,04,1.4,10.3,M,2.0,M,,*66


$GPVTG,0.0,T,4.7,M,0.0,N,0.0,K,A*20


$GPRMC,032540.00,A,3205.103058,N,11846.355485,E,0.0,0.0,070518,4.7,W,A*24


$GPGSA,A,2,21,26,27,31,,,,,,,,,1.6,1.4,0.8*39


,,T,$GPG4A







27,1$GPG205.10W,















10W,































10W,















































10W,































10W,















10W,







10W,10W,10W,10W,10W,10W,10W,10W,10W,10W,10W,10W,10W,10W,10W,10W,10W,10W,10W,10W,10W,10W,10W,10W,10W,10W,10W,10W,10W,10W,10W,10W,10W,10W,10W,10W,10W,10W,10W,10W,10W,10W,10W,10W,10W,10W,10W,10W,10W,10W,10W,10W,10W,10W,10W,10W,10W,10W,10W,10W,10W,10W,10W,10W,10W,10W,10W,10W,10W,10W,10W,10W,10W,10W,10W,10W,10W,10W,10W,10W,10W,10W,10W,10W,10W,10W,10W,10W,10W,10W,10W,10W,10W,10W,10W,10W,10W,10W,10W,10W,10W,10W,10W,10W,10W,10W,10W,10W,10W,10W,10W,10W,10W,10W,10W,10W,10W,10W,10W,10W,10W,10W,10W,10W,10W,10W,10W,10W,10W,10W,10W,10W,10W,10W,10W,10W,10W,10W,10W,10W,10W,10W,10W,10W,10W,10W,10W,10W,10W,10W,10W,10W,10W,10W,10W,10W,10W,10W,10W,10W,10W,10W,10W,10W,10W,10W,10W,10W,10W,10W,10W,10W,10W,10W,10W,10W,10W,10W,10W,10W,10W,10W,10W,10W,10W,10W,10W,10W,10W,10W,10W,10W,10W,10W,10W,10W,10W,10W,10W,10W,10W,10W,10W,10W,10W,10W,10W,10W,10W,10W,10W,10W,10W,10W,10W,10W,10W,10W,10W,10W,10W,10W,10W,10W,10W,10W,10W,10W,10W,10W,10W,10W,10W,10W,10W,10W,10W,10W,10W,10W,10W,10W,10W,10W,10W,10W,10W,10W,10W,10W,10W,10W,10W,10W,10W,10W,10W,10W,10W,10W,10W,10W,10W,10W,10W,10W,10W,10W,10W,10W,10W,10W,10W,10W,10W,10W,10W,10W,10W,10W,10W,10W,10W,10W,10W,10W,10W,10W,10W,10W,10W,10W,10W,10W,10W,10W,10W,10W,10W,10W,10W,10W,10W,10W,10W,10W,10W,10W,10W,10W,10W,10W,10W,10W,10W,10W,10W,10W,10W,10W,10W,10W,10W,10W,10W,10W,10W,10W,10W,10W,10W,10W,10W,10W,10W,10W,10W,10W,10W,10W,10W,10W,10W,10W,10W,10W,10W,10W,10W,10W,10W,10W,10W,10W,10W,10W,10W,10W,10W,10W,10W,10W,10W,10W,10W,10W,10W,10W,10W,10W,10W,10W,10W,10W,10W,10W,10W,10W,10W,10W,10W,10W,10W,10W,10W,10W,10W,10W,10W,10W,10W,10W,10W,10W,10W,10W,10W,10W,10W,10W,10W,10W,10W,10W,10W,10W,10W,10W,10W,10W,10W,10W,10W,10W,10W,10W,10W,10W,10W,10W,10W,10W,10W,10W,10W,10W,10W,10W,10W,10W,10W,10W,10W,10W,10W,10W,10W,10W,10W,10W,10W,10W,10W,10W,10W,10W,10W,10W,10W,10W,10W,10W,10W,10W,10W,10W,10W,10W,10W,10W,10W,10W,10W,10W,10W,10W,10W,10W,10W,10W,10W,10W,10W,10W,10W,10W,10W,10W,10W,10W,10W,10W,10W,10W,10W,10W,10W,10W,10W,10W,10W,10W,10W,10W,10W,10W,10W,10W,10W,10W,10W,10W,10W,10W,10W,10W,10W,10W$GPGSV,4,1,14,04,,,35,08,23,203,23,09,19,314,28,14,13,160,21*4C


$GPGSV,4,2,14,16,62,352,23,21,14,074,25,26,45,039,39,27,60,181,25*77


$GPGSV,4,3,14,31,30,104,43,03,03,237,,22,,,,23,49,282,*4A


$GPGSV,4,4,14,42,,,36,50,,,37*7E


$GPGGA,032541.00,3205.103049,N,11846.355483,E,1,04,1.4,10.4,M,2.0,M,,*66


$GPVTG,0.0,T,4.7,M,0.0,N,0.0,K,A*20


$GPRMC,032541.00,A,3205.103049,N,11846.355483,E,0.0,0.0,070518,4.7,W,A*23


$GPGSA,A,2,21,26,27,31,,,,,,,,,1.6,1.4,0.8*39


$GPGSV,4,1,14,04,,,35,08,23,203,23,09,19,314,29,14,13,160,19*46


$GPGSV,4,2,14,21,14,074,24,26,45,039,39,27,60,181,25,31,30,104,43*73


$GPGSV,4,3,14,03,03,237,,16,62,352,,22,,,,23,49,282,*4E


$GPGSV,4,4,14,42,,,36,50,,,37*7E


$GPGGA,032542.00,3205.103033,N,11846.355500,E,1,04,1.4,10.4,M,2.0,M,,*62


$GPVTG,0.0,T,4.7,M,0.0,N,0.0,K,A*20


$GPRMC,032542.00,A,3205.103033,N,11846.355500,E,0.0,0.0,070518,4.7,W,A*27


$GPGSA,A,2,21,26,27,31,,,,,,,,,1.6,1.4,0.8*39


$GPGSV,4,1,14,04,,,35,08,23,203,24,09,19,314,29,14,13,160,19*41


$GPGSV,4,2,14,21,14,074,26,26,45,039,39,27,60,181,27,31,30,104,42*72


$GPGSV,4,3,14,03,03,237,,16,62,352,,22,,,,23,49,282,*4E


$GPGSV,4,4,14,42,,,37,50,,,37*7F


$GPGGA,032543.00,3205.103021,N,11846.355507,E,1,04,1.4,10.4,M,2.0,M,,*67


$GPVTG,0.0,T,4.7,M,0.0,N,0.0,K,A*20


$GPRMC,032543.00,A,3205.103021,N,11846.355507,E,0.0,0.0,070518,4.7,W,A*22


$GPGSA,A,2,21,26,27,31,,,,,,,,,1.6,1.4,0.8*39


$GPGSV,4,1,14,04,,,36,08,23,203,21,09,19,314,27,14,13,160,19*49


$GPGSV,4,2,14,21,14,074,27,26,45,039,39,27,60,181,28,31,30,104,43*7D


$GPGSV,4,3,14,03,03,237,,16,62,352,,22,,,,23,49,282,*4E


$GPGSV,4,4,14,42,,,37,50,,,37*7F


$GPGGA,032544.00,3205.103013,N,11846.355506,E,1,04,1.4,10.5,M,2.0,M,,*61


$GPVTG,0.0,T,4.7,M,0.0,N,0.0,K,A*20


$GPRMC,032544.00,A,3205.103013,N,11846.355506,E,0.0,0.0,070518,4.7,W,A*25


$GPGSA,A,2,21,26,27,31,,,,,,,,,1.6,1.4,0.8*39


$GPGSV,4,1,14,04,,,37,08,23,203,21,09,19,314,26,14,13,160,18*48


$GPGSV,4,2,14,21,14,074,26,26,45,039,39,27,60,181,27,31,30,104,43*73


$GPGSV,4,3,14,03,03,237,,16,62,352,,22,,,,23,49,282,*4E


$GPGSV,4,4,14,42,,,36,50,,,37*7E


$GPGGA,032545.00,3205.103004,N,11846.355510,E,1,04,1.4,10.5,M,2.0,M,,*61


$GPVTG,0.0,T,4.7,M,0.0,N,0.0,K,A*20


$GPRMC,032545.00,A,3205.103004,N,11846.355510,E,0.0,0.0,070518,4.7,W,A*25


$GPGSA,A,2,21,26,27,31,,,,,,,,,1.6,1.4,0.8*39


$GPGSV,4,1,14,04,,,38,08,23,203,21,09,19,314,29,14,13,160,18*48


$GPGSV,4,2,14,21,14,074,27,26,45,039,39,27,60,181,27,31,30,104,42*73


$GPGSV,4,3,14,03,03,237,,16,62,352,,22,,,,23,49,282,*4E


$GPGSV,4,4,14,42,,,37,50,,,37*7F


$GPGGA,032546.00,3205.102993,N,11846.355523,E,1,04,1.4,10.5,M,2.0,M,,*64


$GPVTG,0.0,T,4.7,M,0.0,N,0.0,K,A*20


$GPRMC,032546.00,A,3205.102993,N,11846.355523,E,0.0,0.0,070518,4.7,W,A*20


$GPGSA,A,2,21,26,27,31,,,,,,,,,1.6,1.4,0.8*39


$GPGSV,4,1,14,03,03,237,18,04,,,38,08,23,203,21,09,19,314,28*4F


$GPGSV,4,2,14,14,13,160,20,21,14,074,27,26,45,039,40,27,60,181,28*72


$GPGSV,4,3,14,31,30,104,42,16,62,352,,22,,,,23,49,282,*4A


$GPGSV,4,4,14,42,,,37,50,,,37*7F


$GPGGA,032547.00,3205.102980,N,11846.355534,E,1,04,1.4,10.6,M,2.0,M,,*62


$GPVTG,0.0,T,4.7,M,0.0,N,0.0,K,A*20


$GPRMC,032547.00,A,3205.102980,N,11846.355534,E,0.0,0.0,070518,4.7,W,A*25


$GPGSA,A,2,21,26,27,31,,,,,,,,,1.6,1.4,0.8*39


$GPGSV,4,1,14,03,03,237,18,04,,,38,08,23,203,21,09,19,314,28*4F


$GPGSV,4,2,14,14,13,160,21,21,14,074,25,26,45,039,40,27,60,181,28*71


$GPGSV,4,3,14,31,30,104,42,16,62,352,,22,,,,23,49,282,*4A


$GPGSV,4,4,14,42,,,37,50,,,37*7F


$GPGGA,032548.00,3205.102961,N,11846.355557,E,1,04,1.4,10.6,M,2.0,M,,*67


$GPVTG,0.0,T,4.7,M,0.0,N,0.0,K,A*20


$GPRMC,032548.00,A,3205.102961,N,11846.355557,E,0.0,0.0,070518,4.7,W,A*20


$GPGSA,A,2,21,26,27,31,,,,,,,,,1.6,1.4,0.8*39


$GPGSV,4,1,14,03,03,237,18,04,,,38,08,23,203,21,09,19,314,28*4F


$GPGSV,4,2,14,14,13,160,22,21,14,074,27,26,45,039,40,27,60,181,27*7F


$GPGSV,4,3,14,31,30,104,42,16,62,352,,22,,,,23,49,282,*4A


$GPGSV,4,4,14,42,,,37,50,,,38*70


$GPGGA,032549.00,3205.102946,N,11846.355575,E,1,04,1.4,10.7,M,2.0,M,,*62


$GPVTG,0.0,T,4.7,M,0.0,N,0.0,K,A*20


$GPRMC,032549.00,A,3205.102946,N,11846.355575,E,0.0,0.0,070518,4.7,W,A*24


$GPGSA,A,2,21,26,27,31,,,,,,,,,1.6,1.4,0.8*39


$GPGSV,4,1,14,03,03,237,17,04,,,37,08,23,203,17,09,19,314,29*4B


$GPGSV,4,2,14,14,13,160,22,26,45,039,40,27,60,181,29,31,30,104,42*73


$GPGSV,4,3,14,16,62,352,,21,14,074,,22,,,,23,49,282,*4D


$GPGSV,4,4,14,42,,,37,50,,,38*70


$GPGGA,032550.00,3205.102931,N,11846.355601,E,1,04,1.4,10.7,M,2.0,M,,*6A


$GPVTG,0.0,T,4.7,M,0.0,N,0.0,K,A*20


$GPRMC,032550.00,A,3205.102931,N,11846.355601,E,0.0,0.0,070518,4.7,W,A*2C


$GPGSA,A,2,21,26,27,31,,,,,,,,,1.6,1.4,0.8*39


$GPGSV,4,1,14,04,,,39,08,23,203,17,09,19,314,28,14,13,160,20*46


$GPGSV,4,2,14,21,14,074,28,26,45,039,40,27,60,181,28,31,30,104,42*7D


$GPGSV,4,3,14,03,03,237,,16,62,352,,22,,,,23,49,282,*4E


$GPGSV,4,4,14,42,,,37,50,,,38*70


$GPGGA,032551.00,3205.102919,N,11846.355610,E,1,04,1.4,10.7,M,2.0,M,,*61


$GPVTG,0.0,T,4.7,M,0.0,N,0.0,K,A*20


$GPRMC,032551.00,A,3205.102919,N,11846.355610,E,0.0,0.0,070518,4.7,W,A*27


$GPGSA,A,2,21,26,27,31,,,,,,,,,1.6,1.4,0.8*39


$GPGSV,4,1,14,04,,,38,08,23,203,17,09,19,314,29,14,13,160,20*46


$GPGSV,4,2,14,21,14,074,30,26,45,039,39,27,60,181,29,31,30,104,42*7B


$GPGSV,4,3,14,03,03,237,,16,62,352,,22,,,,23,49,282,*4E


$GPGSV,4,4,14,42,,,37,50,,,38*70


$GPGGA,032552.00,3205.102907,N,11846.355626,E,1,04,1.4,10.8,M,2.0,M,,*67


$GPVTG,0.0,T,4.7,M,0.0,N,0.0,K,A*20


$GPRMC,032552.00,A,3205.102907,N,11846.355626,E,0.0,0.0,070518,4.7,W,A*2E


$GPGSA,A,2,21,26,27,31,,,,,,,,,1.6,1.4,0.8*39


$GPGSV,4,1,14,04,,,38,08,23,203,17,09,19,314,28,14,13,160,20*47


$GPGSV,4,2,14,21,14,074,29,26,45,039,39,27,60,181,27,31,30,104,42*7D


$GPGSV,4,3,14,03,03,237,,16,62,352,,22,,,,23,49,282,*4E


$GPGSV,4,4,14,42,,,37,50,,,37*7F


$GPGGA,032553.00,3205.102894,N,11846.355646,E,1,04,1.4,10.8,M,2.0,M,,*6B


$GPVTG,0.0,T,4.7,M,0.0,N,0.0,K,A*20


$GPRMC,032553.00,A,3205.102894,N,11846.355646,E,0.0,0.0,070518,4.7,W,A*22


$GPGSA,A,2,21,26,27,31,,,,,,,,,1.6,1.4,0.8*39


$GPGSV,4,1,14,04,,,38,08,23,203,17,09,19,314,27,14,13,160,20*48


$GPGSV,4,2,14,16,62,352,25,21,14,074,29,26,45,039,39,27,60,181,27*7F


$GPGSV,4,3,14,31,30,104,42,03,03,237,,22,,,,23,49,282,*4B


$GPGSV,4,4,14,42,,,37,50,,,37*7F


$GPGGA,032554.00,3205.102881,N,11846.355661,E,1,05,1.2,10.8,M,2.0,M,,*6A


$GPVTG,0.0,T,4.7,M,0.0,N,0.0,K,A*20


$GPRMC,032554.00,A,3205.102881,N,11846.355661,E,0.0,0.0,070518,4.7,W,A*24


$GPGSA,A,2,16,21,26,27,31,,,,,,,,1.4,1.2,0.8*3A


$GPGSV,4,1,14,04,,,38,08,23,203,17,09,19,314,26,14,13,160,20*49


$GPGSV,4,2,14,21,14,074,28,26,45,039,40,27,60,181,30,31,30,104,41*77


$GPGSV,4,3,14,03,03,237,,16,62,352,,22,,,,23,49,282,*4E


$GPGSV,4,4,14,42,,,38,50,,,38*7F


$GPGGA,032555.00,3205.102865,N,11846.355680,E,1,05,1.2,10.9,M,2.0,M,,*6F


$GPVTG,0.0,T,4.7,M,0.0,N,0.0,K,A*20


$GPRMC,032555.00,A,3205.102865,N,11846.355680,E,0.0,0.0,070518,4.7,W,A*20


$GPGSA,A,2,16,21,26,27,31,,,,,,,,1.4,1.2,0.8*3A


$GPGSV,4,1,14,04,,,38,08,23,203,17,09,19,314,25,14,13,160,20*4A


$GPGSV,4,2,14,21,14,074,27,26,45,039,39,27,60,181,28,31,30,104,41*7F


$GPGSV,4,3,14,03,03,237,,16,62,352,,22,,,,23,49,282,*4E


$GPGSV,4,4,14,42,,,37,50,,,37*7F


$GPGGA,032556.00,3205.102855,N,11846.355703,E,1,05,1.2,10.9,M,2.0,M,,*65


$GPVTG,0.0,T,4.7,M,0.0,N,0.0,K,A*20


$GPRMC,032556.00,A,3205.102855,N,11846.355703,E,0.0,0.0,070518,4.7,W,A*2A


$GPGSA,A,2,16,21,26,27,31,,,,,,,,1.4,1.2,0.8*3A


$GPGSV,4,1,14,04,,,37,08,23,203,17,09,19,314,24,14,13,160,20*44


$GPGSV,4,2,14,16,62,352,24,21,14,074,26,26,45,039,40,27,60,181,27*7F


$GPGSV,4,3,14,31,30,104,41,03,03,237,,22,,,,23,49,282,*48


$GPGSV,4,4,14,42,,,38,50,,,37*70


$GPGGA,032557.00,3205.102846,N,11846.355716,E,1,05,1.2,10.9,M,2.0,M,,*62


$GPVTG,0.0,T,4.7,M,0.0,N,0.0,K,A*20


$GPRMC,032557.00,A,3205.102846,N,11846.355716,E,0.0,0.0,070518,4.7,W,A*2D


$GPGSA,A,2,16,21,26,27,31,,,,,,,,1.4,1.2,0.8*3A


$GPGSV,4,1,14,04,,,36,08,23,203,17,09,19,314,26,14,13,160,20*47


$GPGSV,4,2,14,21,14,074,25,26,45,039,40,27,60,181,26,31,30,104,41*7D


$GPGSV,4,3,14,03,03,237,,16,62,352,,22,,,,23,49,282,*4E


$GPGSV,4,4,14,42,,,37,50,,,38*70


$GPGGA,032558.00,3205.102824,N,11846.355757,E,1,05,1.2,11.0,M,2.0,M,,*64


$GPVTG,0.0,T,4.7,M,0.0,N,0.0,K,A*20


$GPRMC,032558.00,A,3205.102824,N,11846.355757,E,0.0,0.0,070518,4.7,W,A*23


$GPGSA,A,2,16,21,26,27,31,,,,,,,,1.4,1.2,0.8*3A


$GPGSV,4,1,14,04,,,35,08,23,203,17,09,19,314,23,14,13,160,20*41


$GPGSV,4,2,14,21,14,074,28,26,45,039,39,27,60,181,21,31,30,104,41*79


$GPGSV,4,3,14,03,03,237,,16,62,352,,22,,,,23,49,282,*4E


$GPGSV,4,4,14,42,,,37,50,,,38*70


$GPGGA,032559.00,3205.102807,N,11846.355799,E,1,05,1.2,11.0,M,2.0,M,,*66


$GPVTG,0.0,T,4.7,M,0.0,N,0.0,K,A*20


$GPRMC,032559.00,A,3205.102807,N,11846.355799,E,0.0,0.0,070518,4.7,W,A*21


$GPGSA,A,2,16,21,26,27,31,,,,,,,,1.4,1.2,0.8*3A


$GPGSV,4,1,14,04,,,35,08,23,203,17,09,19,314,22,14,13,160,16*45


$GPGSV,4,2,14,21,14,074,29,26,45,039,39,27,60,181,21,31,30,104,41*78


$GPGSV,4,3,14,03,03,237,,16,62,352,,22,,,,23,49,282,*4E


$GPGSV,4,4,14,42,,,38,50,,,37*70


$GPGGA,032600.00,3205.102791,N,11846.355827,E,1,05,1.2,11.0,M,2.0,M,,*63


$GPVTG,0.0,T,4.7,M,0.0,N,0.0,K,A*20


$GPRMC,032600.00,A,3205.102791,N,11846.355827,E,0.0,0.0,070518,4.7,W,A*24


$GPGSA,A,2,16,21,26,27,31,,,,,,,,1.4,1.2,0.8*3A


$GPGSV,4,1,14,04,,,35,08,23,203,17,09,19,314,25,14,13,160,22*45


$GPGSV,4,2,14,16,62,352,24,21,14,074,28,26,45,039,39,27,60,181,21*79


$GPGSV,4,3,14,31,30,104,41,03,03,237,,22,,,,23,49,282,*48


$GPGSV,4,4,14,42,,,37,50,,,37*7F


$GPGGA,032601.00,3205.102772,N,11846.355850,E,1,05,1.2,11.1,M,2.0,M,,*6E


$GPVTG,0.0,T,4.7,M,0.0,N,0.0,K,A*20


$GPRMC,032601.00,A,3205.102772,N,11846.355850,E,0.0,0.0,070518,4.7,W,A*28


$GPGSA,A,2,16,21,26,27,31,,,,,,,,1.4,1.2,0.8*3A


$GPGSV,4,1,14,04,,,33,08,23,203,13,09,19,314,26,14,13,160,23*45


$GPGSV,4,2,14,21,14,074,28,26,45,039,38,31,30,104,41,03,03,237,*76


$GPGSV,4,3,14,16,62,352,,22,,,,23,49,282,,27,60,181,*43


$GPGSV,4,4,14,42,,,37,50,,,37*7F


$GPGGA,032602.00,3205.102766,N,11846.355861,E,1,05,1.2,11.1,M,2.0,M,,*6A


$GPVTG,0.0,T,4.7,M,0.0,N,0.0,K,A*20


$GPRMC,032602.00,A,3205.102766,N,11846.355861,E,0.0,0.0,070518,4.7,W,A*2C


$GPGSA,A,2,16,21,26,27,31,,,,,,,,1.4,1.2,0.8*3A


$GPGSV,4,1,14,03,03,237,16,04,,,33,08,23,203,13,09,19,314,27*44


$GPGSV,4,2,14,14,13,160,22,21,14,074,29,26,45,039,39,31,30,104,41*70


$GPGSV,4,3,14,16,62,352,,22,,,,23,49,282,,27,60,181,*43


$GPGSV,4,4,14,42,,,37,50,,,37*7F


$GPGGA,032603.00,3205.102756,N,11846.355880,E,1,05,1.2,11.1,M,2.0,M,,*67


$GPVTG,0.0,T,4.7,M,0.0,N,0.0,K,A*20


$GPRMC,032603.00,A,3205.102756,N,11846.355880,E,0.0,0.0,070518,4.7,W,A*21


$GPGSA,A,2,16,21,26,27,31,,,,,,,,1.4,1.2,0.8*3A


$GPGSV,4,1,14,04,,,32,08,23,203,13,09,19,314,27,14,12,160,22*45


$GPGSV,4,2,14,21,14,074,29,26,45,039,38,31,29,104,41,03,03,236,*7E


$GPGSV,4,3,14,16,62,352,,22,,,,23,49,282,,27,61,180,*43


$GPGSV,4,4,14,42,,,38,50,,,38*7F


$GPGGA,032604.00,3205.102742,N,11846.355902,E,1,04,1.3,11.1,M,2.0,M,,*6E


$GPVTG,0.0,T,4.7,M,0.0,N,0.0,K,A*20


$GPRMC,032604.00,A,3205.102742,N,11846.355902,E,0.0,0.0,070518,4.7,W,A*28


$GPGSA,A,2,16,21,26,31,,,,,,,,,1.5,1.3,0.8*3F


$GPGSV,4,1,14,04,,,29,08,23,203,13,09,19,314,28,14,12,160,22*40


$GPGSV,4,2,14,21,14,074,29,26,45,039,38,31,29,104,41,03,03,236,*7E


$GPGSV,4,3,14,16,62,352,,22,,,,23,49,282,,27,61,180,*43


$GPGSV,4,4,14,42,,,38,50,,,38*7F


$GPGGA,032605.00,3205.102729,N,11846.355924,E,1,04,1.3,11.2,M,2.0,M,,*65


$GPVTG,0.0,T,4.7,M,0.0,N,0.0,K,A*20


$GPRMC,032605.00,A,3205.102729,N,11846.355924,E,0.0,0.0,070518,4.7,W,A*20


$GPGSA,A,2,16,21,26,31,,,,,,,,,1.5,1.3,0.8*3F


$GPGSV,4,1,14,03,03,236,21,04,,,31,09,19,314,26,14,12,160,22*49


$GPGSV,4,2,14,21,14,074,29,26,45,039,38,31,29,104,41,08,23,203,*71


$GPGSV,4,3,14,16,62,352,,22,,,,23,49,282,,27,61,180,*43


$GPGSV,4,4,14,42,,,37,50,,,38*70


$GPGGA,032606.00,3205.102722,N,11846.355934,E,1,04,1.3,11.2,M,2.0,M,,*6C


$GPVTG,0.0,T,4.7,M,0.0,N,0.0,K,A*20


$GPRMC,032606.00,A,3205.102722,N,11846.355934,E,0.0,0.0,070518,4.7,W,A*29


$GPGSA,A,2,16,21,26,31,,,,,,,,,1.5,1.3,0.8*3F


$GPGSV,4,1,14,03,03,236,21,04,,,32,09,19,314,28,14,12,160,19*4C


$GPGSV,4,2,14,21,14,074,28,26,45,039,38,31,29,104,41,08,23,203,*70


$GPGSV,4,3,14,16,62,352,,22,,,,23,49,282,,27,61,180,*43


$GPGSV,4,4,14,42,,,38,50,,,38*7F


$GPGGA,032607.00,3205.102717,N,11846.355937,E,1,03,1.6,11.2,M,2.0,M,,*6A


$GPVTG,0.0,T,4.7,M,0.0,N,0.0,K,A*20


$GPRMC,032607.00,A,3205.102717,N,11846.355937,E,0.0,0.0,070518,4.7,W,A*2D


$GPGSA,A,2,21,26,31,,,,,,,,,,1.8,1.6,0.8*30


$GPGSV,4,1,14,03,03,236,20,04,,,34,09,19,314,26,14,12,160,22*4D


$GPGSV,4,2,14,21,14,074,26,26,45,039,36,31,29,104,41,08,23,203,*70


$GPGSV,4,3,14,16,62,352,,22,,,,23,49,282,,27,61,180,*43


$GPGSV,4,4,14,42,,,38,50,,,37*70


$GPGGA,032608.00,3205.102710,N,11846.355946,E,1,03,1.6,11.2,M,2.0,M,,*64


$GPVTG,0.0,T,4.7,M,0.0,N,0.0,K,A*20


$GPRMC,032608.00,A,3205.102710,N,11846.355946,E,0.0,0.0,070518,4.7,W,A*23


$GPGSA,A,2,21,26,31,,,,,,,,,,1.8,1.6,0.8*30


$GPGSV,4,1,14,04,,,34,09,19,314,26,14,12,160,21,21,14,074,27*4B


$GPGSV,4,2,14,26,45,039,37,31,29,104,41,03,03,236,,08,23,203,*77


$GPGSV,4,3,14,16,62,352,,22,,,,23,49,282,,27,61,180,*43


$GPGSV,4,4,14,42,,,38,50,,,37*70


$GPGGA,032609.00,3205.102707,N,11846.355949,E,1,03,1.6,11.2,M,2.0,M,,*6C


$GPVTG,0.0,T,4.7,M,0.0,N,0.0,K,A*20


$GPRMC,032609.00,A,3205.102707,N,11846.355949,E,0.0,0.0,070518,4.7,W,A*2B


$GPGSA,A,2,21,26,31,,,,,,,,,,1.8,1.6,0.8*30


$GPGSV,4,1,14,04,,,36,09,19,314,24,14,12,160,23,21,14,074,28*46


$GPGSV,4,2,14,26,45,039,36,31,29,104,41,03,03,236,,08,23,203,*76


$GPGSV,4,3,14,16,62,352,,22,,,,23,49,282,,27,61,180,*43


$GPGSV,4,4,14,42,,,37,50,,,37*7F


$GPGGA,032610.00,3205.102710,N,11846.355948,E,1,03,1.6,11.2,M,2.0,M,,*63


$GPVTG,0.0,T,4.7,M,0.0,N,0.0,K,A*20


$GPRMC,032610.00,A,3205.102710,N,11846.355948,E,0.0,0.0,070518,4.7,W,A*24


$GPGSA,A,2,21,26,31,,,,,,,,,,1.8,1.6,0.8*30


$GPGSV,4,1,14,04,,,37,09,19,314,23,14,12,160,23,21,14,074,29*41


$GPGSV,4,2,14,26,45,039,35,31,29,104,41,03,03,236,,08,23,203,*75


$GPGSV,4,3,14,16,62,352,,22,,,,23,49,282,,27,61,180,*43


$GPGSV,4,4,14,42,,,37,50,,,37*7F


$GPGGA,032611.00,3205.102708,N,11846.355953,E,1,03,1.6,11.2,M,2.0,M,,*61


$GPVTG,0.0,T,4.7,M,0.0,N,0.0,K,A*20


$GPRMC,032611.00,A,3205.102708,N,11846.355953,E,0.0,0.0,070518,4.7,W,A*26


$GPGSA,A,2,21,26,31,,,,,,,,,,1.8,1.6,0.8*30


$GPGSV,4,1,14,03,03,236,20,04,,,37,09,19,314,22,14,12,160,23*4B


$GPGSV,4,2,14,21,14,074,30,26,45,039,36,31,29,104,41,08,23,203,*77


$GPGSV,4,3,14,16,62,352,,22,,,,23,49,282,,27,61,180,*43


$GPGSV,4,4,14,42,,,37,50,,,37*7F


$GPGGA,032612.00,3205.102697,N,11846.355959,E,1,03,1.6,11.2,M,2.0,M,,*6F


$GPVTG,0.0,T,4.7,M,0.0,N,0.0,K,A*20


$GPRMC,032612.00,A,3205.102697,N,11846.355959,E,0.0,0.0,070518,4.7,W,A*28


$GPGSA,A,2,21,26,31,,,,,,,,,,1.8,1.6,0.8*30


$GPGSV,4,1,14,03,03,236,19,04,,,38,09,19,314,22,14,12,160,23*4E


$GPGSV,4,2,14,21,14,074,28,26,45,039,37,31,29,104,42,08,23,203,*7C


$GPGSV,4,3,14,16,62,352,,22,,,,23,49,282,,27,61,180,*43


$GPGSV,4,4,14,42,,,38,50,,,38*7F


$GPGGA,032613.00,3205.102687,N,11846.355962,E,1,03,1.6,11.3,M,2.0,M,,*66


$GPVTG,0.0,T,4.7,M,0.0,N,0.0,K,A*20


$GPRMC,032613.00,A,3205.102687,N,11846.355962,E,0.0,0.0,070518,4.7,W,A*20


$GPGSA,A,2,21,26,31,,,,,,,,,,1.8,1.6,0.8*30


$GPGSV,4,1,14,03,03,236,19,04,,,37,09,19,314,20,14,12,160,24*44


$GPGSV,4,2,14,21,14,074,29,26,45,039,38,31,29,104,41,08,23,203,*71


$GPGSV,4,3,14,16,62,352,,22,,,,23,49,282,,27,61,180,*43


$GPGSV,4,4,14,42,,,38,50,,,37*70


$GPGGA,032614.00,3205.102678,N,11846.355973,E,1,04,1.5,11.3,M,2.0,M,,*65


$GPVTG,0.0,T,4.7,M,0.0,N,0.0,K,A*20


$GPRMC,032614.00,A,3205.102678,N,11846.355973,E,0.0,0.0,070518,4.7,W,A*27


$GPGSA,A,2,14,21,26,31,,,,,,,,,1.7,1.5,0.8*39


$GPGSV,4,1,14,03,03,236,18,04,,,37,09,19,314,21,14,12,160,23*43


$GPGSV,4,2,14,21,14,074,29,22,,,19,26,45,039,38,31,29,104,41*41


$GPGSV,4,3,14,08,23,203,,16,62,352,,23,49,282,,27,61,180,*7B


$GPGSV,4,4,14,42,,,38,50,,,38*7F


$GPGGA,032615.00,3205.102665,N,11846.355987,E,1,04,1.5,11.4,M,2.0,M,,*64


$GPVTG,0.0,T,4.7,M,0.0,N,0.0,K,A*20


$GPRMC,032615.00,A,3205.102665,N,11846.355987,E,0.0,0.0,070518,4.7,W,A*21


$GPGSA,A,2,14,21,26,31,,,,,,,,,1.7,1.5,0.8*39


$GPGSV,4,1,14,03,03,236,19,04,,,37,09,19,314,24,14,12,160,26*42


$GPGSV,4,2,14,21,14,074,27,26,45,039,37,31,29,104,41,08,23,203,*70


$GPGSV,4,3,14,16,62,352,,22,,,,23,49,282,,27,61,180,*43


$GPGSV,4,4,14,42,,,38,50,,,38*7F


$GPGGA,032616.00,3205.102655,N,11846.355999,E,1,04,1.5,11.4,M,2.0,M,,*6B


$GPVTG,0.0,T,4.7,M,0.0,N,0.0,K,A*20


$GPRMC,032616.00,A,3205.102655,N,11846.355999,E,0.0,0.0,070518,4.7,W,A*2E


$GPGSA,A,2,14,21,26,31,,,,,,,,,1.7,1.5,0.8*39


$GPGSV,4,1,14,03,03,236,18,04,,,37,09,19,314,23,14,12,160,25*47


$GPGSV,4,2,14,21,14,074,29,26,45,039,38,27,61,180,26,31,29,104,41*76


$GPGSV,4,3,14,08,23,203,,16,62,352,,22,,,,23,49,282,*40


$GPGSV,4,4,14,42,,,37,50,,,38*70


$GPGGA,032617.00,3205.102642,N,11846.356028,E,1,05,1.4,11.4,M,2.0,M,,*6C


$GPVTG,0.0,T,4.7,M,0.0,N,0.0,K,A*20


$GPRMC,032617.00,A,3205.102642,N,11846.356028,E,0.0,0.0,070518,4.7,W,A*29


$GPGSA,A,2,14,21,26,27,31,,,,,,,,1.6,1.4,0.8*3C


$GPGSV,4,1,14,03,03,236,18,04,,,37,09,19,314,22,14,12,160,24*47


$GPGSV,4,2,14,21,14,074,26,26,45,039,39,27,61,180,28,31,29,104,41*76


$GPGSV,4,3,14,08,23,203,,16,62,352,,22,,,,23,49,282,*40


$GPGSV,4,4,14,42,,,37,50,,,38*70


$GPGGA,032618.00,3205.102630,N,11846.356059,E,1,05,1.4,11.5,M,2.0,M,,*61


$GPVTG,0.0,T,4.7,M,0.0,N,0.0,K,A*20


$GPRMC,032618.00,A,3205.102630,N,11846.356059,E,0.0,0.0,070518,4.7,W,A*25


$GPGSA,A,2,14,21,26,27,31,,,,,,,,1.6,1.4,0.8*3C


$GPGSV,4,1,14,03,03,236,18,04,,,37,09,19,314,22,14,12,160,24*47


$GPGSV,4,2,14,21,14,074,25,22,,,19,26,45,039,39,27,61,180,27*4B


$GPGSV,4,3,14,31,29,104,42,08,23,203,,16,62,352,,23,49,282,*7A


$GPGSV,4,4,14,42,,,38,50,,,38*7F


$GPGGA,032619.00,3205.102616,N,11846.356074,E,1,05,1.4,11.5,M,2.0,M,,*6B


$GPVTG,0.0,T,4.7,M,0.0,N,0.0,K,A*20


$GPRMC,032619.00,A,3205.102616,N,11846.356074,E,0.0,0.0,070518,4.7,W,A*2F


$GPGSA,A,2,14,21,26,27,31,,,,,,,,1.6,1.4,0.8*3C


$GPGSV,4,1,14,03,03,236,18,04,,,38,08,23,203,20,09,19,314,21*46


$GPGSV,4,2,14,14,12,160,24,21,14,074,23,22,,,19,26,45,039,39*44


$GPGSV,4,3,14,27,61,180,25,31,29,104,42,16,62,352,,23,49,282,*7E


$GPGSV,4,4,14,42,,,37,50,,,38*70


$GPGGA,032620.00,3205.102605,N,11846.356086,E,1,05,1.4,11.5,M,2.0,M,,*6E


$GPVTG,0.0,T,4.7,M,0.0,N,0.0,K,A*20


$GPRMC,032620.00,A,3205.102605,N,11846.356086,E,0.0,0.0,070518,4.7,W,A*2A


$GPGSA,A,2,14,21,26,27,31,,,,,,,,1.6,1.4,0.8*3C


$GPGSV,4,1,14,03,03,236,18,04,,,38,08,23,203,19,09,19,314,22*4F


$GPGSV,4,2,14,14,12,160,22,21,14,074,26,22,,,18,26,45,039,39*46


$GPGSV,4,3,14,27,61,180,25,31,29,104,41,16,62,352,,23,49,282,*7D


$GPGSV,4,4,14,42,,,38,50,,,38*7F


$GPGGA,032621.00,3205.102592,N,11846.356098,E,1,05,1.4,11.6,M,2.0,M,,*6E


$GPVTG,0.0,T,4.7,M,0.0,N,0.0,K,A*20


$GPRMC,032621.00,A,3205.102592,N,11846.356098,E,0.0,0.0,070518,4.7,W,A*29


$GPGSA,A,2,14,21,26,27,31,,,,,,,,1.6,1.4,0.8*3C


$GPGSV,4,1,14,03,03,236,18,04,,,39,08,23,203,18,09,19,314,22*4F


$GPGSV,4,2,14,14,12,160,21,21,14,074,25,22,,,18,26,45,039,39*46


$GPGSV,4,3,14,27,61,180,23,31,29,104,40,16,62,352,,23,49,282,*7A


$GPGSV,4,4,14,42,,,37,50,,,38*70


$GPGGA,032622.00,3205.102575,N,11846.356117,E,1,05,1.4,11.6,M,2.0,M,,*62


$GPVTG,0.0,T,4.7,M,0.0,N,0.0,K,A*20


$GPRMC,032622.00,A,3205.102575,N,11846.356117,E,0.0,0.0,070518,4.7,W,A*25


$GPGSA,A,2,14,21,26,27,31,,,,,,,,1.6,1.4,0.8*3C


$GPGSV,4,1,14,03,03,236,18,04,,,40,08,23,203,18,09,19,314,21*42


$GPGSV,4,2,14,14,12,160,22,16,62,352,25,21,14,074,25,22,,,18*40


$GPGSV,4,3,14,26,45,039,39,27,61,180,25,31,29,104,40,23,49,282,*7E


$GPGSV,4,4,14,42,,,37,50,,,38*70


$GPGGA,032623.00,3205.102559,N,11846.356137,E,1,06,1.2,11.7,M,2.0,M,,*6B


$GPVTG,0.0,T,4.7,M,0.0,N,0.0,K,A*20


$GPRMC,032623.00,A,3205.102559,N,11846.356137,E,0.0,0.0,070518,4.7,W,A*28


$GPGSA,A,2,14,16,21,26,27,31,,,,,,,1.4,1.2,0.8*3F


$GPGSV,4,1,14,03,03,236,18,04,,,39,08,23,203,18,09,19,314,22*4F


$GPGSV,4,2,14,14,12,160,23,16,62,352,26,21,14,074,25,22,,,18*42


$GPGSV,4,3,14,26,45,039,39,27,61,180,25,31,29,104,42,23,49,282,*7C


$GPGSV,4,4,14,42,,,39,50,,,37*71


$GPGGA,032624.00,3205.102539,N,11846.356167,E,1,06,1.2,11.7,M,2.0,M,,*6F


$GPVTG,0.0,T,4.7,M,0.0,N,0.0,K,A*20


$GPRMC,032624.00,A,3205.102539,N,11846.356167,E,0.0,0.0,070518,4.7,W,A*2C


$GPGSA,A,2,14,16,21,26,27,31,,,,,,,1.4,1.2,0.8*3F


$GPGSV,4,1,14,03,03,236,18,04,,,39,08,23,203,18,09,19,314,23*4E


$GPGSV,4,2,14,14,12,160,24,16,62,352,26,21,14,074,25,26,45,039,40*77


$GPGSV,4,3,14,31,29,104,42,22,,,,23,49,282,,27,61,180,*4E


$GPGSV,4,4,14,42,,,38,50,,,37*70


$GPGGA,032625.00,3205.102519,N,11846.356198,E,1,06,1.2,11.8,M,2.0,M,,*63


$GPVTG,0.0,T,4.7,M,0.0,N,0.0,K,A*20


$GPRMC,032625.00,A,3205.102519,N,11846.356198,E,0.0,0.0,070518,4.7,W,A*2F


$GPGSA,A,2,14,16,21,26,27,31,,,,,,,1.4,1.2,0.8*3F


$GPGSV,4,1,14,03,03,236,18,04,,,39,08,23,203,17,09,19,314,24*46


$GPGSV,4,2,14,14,12,160,21,26,45,039,40,31,29,104,42,16,62,352,*7E


$GPGSV,4,3,14,21,14,074,,22,,,,23,49,282,,27,61,180,*41


$GPGSV,4,4,14,42,,,38,50,,,37*70


$GPGGA,032626.00,3205.102494,N,11846.356233,E,1,06,1.2,11.9,M,2.0,M,,*67


$GPVTG,0.0,T,4.7,M,0.0,N,0.0,K,A*20


$GPRMC,032626.00,A,3205.102494,N,11846.356233,E,0.0,0.0,070518,4.7,W,A*2A


$GPGSA,A,2,14,16,21,26,27,31,,,,,,,1.4,1.2,0.8*3F


$GPGSV,4,1,14,03,03,236,18,04,,,40,08,23,203,17,09,19,314,20*4C


$GPGSV,4,2,14,14,12,160,21,16,62,352,26,26,45,039,41,31,29,104,41*78


$GPGSV,4,3,14,21,14,074,,22,,,,23,49,282,,27,61,180,*41


$GPGSV,4,4,14,42,,,38,50,,,37*70


$GPGGA,032627.00,3205.102467,N,11846.356282,E,1,06,1.2,11.9,M,2.0,M,,*60


$GPVTG,0.0,T,4.7,M,0.0,N,0.0,K,A*20


$GPRMC,032627.00,A,3205.102467,N,11846.356282,E,0.0,0.0,070518,4.7,W,A*2D


$GPGSA,A,2,14,16,21,26,27,31,,,,,,,1.4,1.2,0.8*3F


$GPGSV,4,1,14,03,03,236,21,04,,,39,08,23,203,17,09,19,314,20*48


$GPGSV,4,2,14,14,12,160,21,16,62,352,27,26,45,039,41,31,29,104,42*7A


$GPGSV,4,3,14,21,14,074,,22,,,,23,49,282,,27,61,180,*41


$GPGSV,4,4,14,42,,,38,50,,,37*70


$GPGGA,032628.00,3205.102443,N,11846.356313,E,1,05,1.3,12.0,M,2.0,M,,*68


$GPVTG,0.0,T,4.7,M,0.0,N,0.0,K,A*20


$GPRMC,032628.00,A,3205.102443,N,11846.356313,E,0.0,0.0,070518,4.7,W,A*2D


$GPGSA,A,2,14,16,26,27,31,,,,,,,,1.5,1.3,0.8*3C


$GPGSV,4,1,14,03,03,236,22,04,,,39,08,23,203,17,09,19,314,21*4A


$GPGSV,4,2,14,14,12,160,21,16,62,352,28,26,45,039,41,31,29,104,42*75


$GPGSV,4,3,14,21,14,074,,22,,,,23,49,282,,27,61,180,*41


$GPGSV,4,4,14,42,,,38,50,,,37*70


$GPGGA,032629.00,3205.102423,N,11846.356349,E,1,04,1.4,12.0,M,2.0,M,,*66


$GPVTG,0.0,T,4.7,M,0.0,N,0.0,K,A*20


$GPRMC,032629.00,A,3205.102423,N,11846.356349,E,0.0,0.0,070518,4.7,W,A*25


$GPGSA,A,2,14,16,26,31,,,,,,,,,1.6,1.4,0.8*3D


$GPGSV,4,1,14,03,03,236,23,04,,,38,08,23,203,17,09,19,314,25*4E


$GPGSV,4,2,14,14,12,160,17,16,62,352,29,26,45,039,41,31,29,104,42*71


$GPGSV,4,3,14,21,14,074,,22,,,,23,49,282,,27,61,180,*41


$GPGSV,4,4,14,42,,,38,50,,,38*7F


$GPGGA,032630.00,3205.102407,N,11846.356384,E,1,04,1.4,12.1,M,2.0,M,,*68


$GPVTG,0.0,T,4.7,M,0.0,N,0.0,K,A*20


$GPRMC,032630.00,A,3205.102407,N,11846.356384,E,0.0,0.0,070518,4.7,W,A*2A


$GPGSA,A,2,14,16,26,31,,,,,,,,,1.6,1.4,0.8*3D


$GPGSV,4,1,14,03,03,236,22,04,,,39,08,23,203,17,09,19,314,26*4D


$GPGSV,4,2,14,14,12,160,17,16,62,352,28,26,45,039,41,27,61,180,25*76


$GPGSV,4,3,14,31,29,104,42,21,14,074,,22,,,,23,49,282,*40


$GPGSV,4,4,14,42,,,37,50,,,38*70


$GPGGA,032631.00,3205.102393,N,11846.356424,E,1,04,1.3,12.1,M,2.0,M,,*69


$GPVTG,0.0,T,4.7,M,0.0,N,0.0,K,A*20


$GPRMC,032631.00,A,3205.102393,N,11846.356424,E,0.0,0.0,070518,4.7,W,A*2C


$GPGSA,A,2,16,26,27,31,,,,,,,,,1.5,1.3,0.8*39


$GPGSV,4,1,14,03,03,236,22,04,,,39,08,23,203,17,09,19,314,26*4D


$GPGSV,4,2,14,14,12,160,20,16,62,352,28,26,45,039,41,27,61,180,29*7E


$GPGSV,4,3,14,31,29,104,42,21,14,074,,22,,,,23,49,282,*40


$GPGSV,4,4,14,42,,,37,50,,,38*70


$GPGGA,032632.00,3205.102378,N,11846.356455,E,1,04,1.3,12.1,M,2.0,M,,*69


$GPVTG,0.0,T,4.7,M,0.0,N,0.0,K,A*20


$GPRMC,032632.00,A,3205.102378,N,11846.356455,E,0.0,0.0,070518,4.7,W,A*2C


$GPGSA,A,2,16,26,27,31,,,,,,,,,1.5,1.3,0.8*39


$GPGSV,4,1,13,04,,,38,08,23,203,17,09,19,314,25,14,12,160,20*4C


$GPGSV,4,2,13,16,62,352,28,21,14,074,26,26,45,039,41,27,61,180,27*75


$GPGSV,4,3,13,31,29,104,42,22,,,,23,49,282,,42,,,38*7F


$GPGSV,4,4,13,50,,,38*75


$GPGGA,032633.00,3205.102363,N,11846.356483,E,1,05,1.2,12.2,M,2.0,M,,*6A


$GPVTG,0.0,T,4.7,M,0.0,N,0.0,K,A*20


$GPRMC,032633.00,A,3205.102363,N,11846.356483,E,0.0,0.0,070518,4.7,W,A*2C


$GPGSA,A,2,16,21,26,27,31,,,,,,,,1.5,1.2,0.8*3B


$GPGSV,4,1,13,04,,,38,08,23,203,17,09,19,314,27,14,12,160,20*4E


$GPGSV,4,2,13,16,62,352,26,21,14,074,29,26,45,039,42,27,61,180,26*76


$GPGSV,4,3,13,31,29,104,42,22,,,,23,49,282,,42,,,38*7F


$GPGSV,4,4,13,50,,,38*75


$GPGGA,032634.00,3205.102352,N,11846.356509,E,1,05,1.2,12.2,M,2.0,M,,*6C


$GPVTG,0.0,T,4.7,M,0.0,N,0.0,K,A*20


$GPRMC,032634.00,A,3205.102352,N,11846.356509,E,0.0,0.0,070518,4.7,W,A*2A


$GPGSA,A,2,16,21,26,27,31,,,,,,,,1.5,1.2,0.8*3B


$GPGSV,4,1,13,04,,,38,08,23,203,17,09,19,314,27,14,12,160,21*4F


$GPGSV,4,2,13,21,14,074,29,26,45,039,42,27,61,180,27,31,29,104,41*7D


$GPGSV,4,3,13,16,62,352,,22,,,,23,49,282,,42,,,38*72


$GPGSV,4,4,13,50,,,37*7A


$GPGGA,032635.00,3205.102337,N,11846.356531,E,1,05,1.2,12.2,M,2.0,M,,*65


$GPVTG,0.0,T,4.7,M,0.0,N,0.0,K,A*20


$GPRMC,032635.00,A,3205.102337,N,11846.356531,E,0.0,0.0,070518,4.7,W,A*23


$GPGSA,A,2,16,21,26,27,31,,,,,,,,1.5,1.2,0.8*3B


$GPGSV,4,1,13,04,,,38,08,23,203,17,09,19,314,26,14,12,160,21*4E


$GPGSV,4,2,13,21,14,074,27,26,45,039,41,27,61,180,28,31,29,104,42*7C


$GPGSV,4,3,13,16,62,352,,22,,,,23,49,282,,42,,,38*72


$GPGSV,4,4,13,50,,,38*75


$GPGGA,032636.00,3205.102323,N,11846.356552,E,1,05,1.2,12.3,M,2.0,M,,*67


$GPVTG,0.0,T,4.7,M,0.0,N,0.0,K,A*20


$GPRMC,032636.00,A,3205.102323,N,11846.356552,E,0.0,0.0,070518,4.7,W,A*20


$GPGSA,A,2,16,21,26,27,31,,,,,,,,1.5,1.2,0.8*3B


$GPGSV,4,1,13,04,,,38,08,23,203,17,09,19,314,26,14,12,160,21*4E


$GPGSV,4,2,13,26,45,039,41,27,61,180,28,31,29,104,42,16,62,352,*7B


$GPGSV,4,3,13,21,14,074,,22,,,,23,49,282,,42,,,38*70


$GPGSV,4,4,13,50,,,38*75


$GPGGA,032637.00,3205.102306,N,11846.356574,E,1,05,1.2,12.3,M,2.0,M,,*65


$GPVTG,0.0,T,4.7,M,0.0,N,0.0,K,A*20


$GPRMC,032637.00,A,3205.102306,N,11846.356574,E,0.0,0.0,070518,4.7,W,A*22


$GPGSA,A,2,16,21,26,27,31,,,,,,,,1.5,1.2,0.8*3B


$GPGSV,4,1,13,04,,,38,08,23,203,17,09,19,314,26,14,12,160,21*4E


$GPGSV,4,2,13,26,45,039,41,27,61,180,23,31,29,104,41,16,62,352,*73


$GPGSV,4,3,13,21,14,074,,22,,,,23,49,282,,42,,,38*70


$GPGSV,4,4,13,50,,,38*75


$GPGGA,032638.00,3205.102292,N,11846.356586,E,1,05,1.2,12.3,M,2.0,M,,*6B


$GPVTG,0.0,T,4.7,M,0.0,N,0.0,K,A*20


$GPRMC,032638.00,A,3205.102292,N,11846.356586,E,0.0,0.0,070518,4.7,W,A*2C


$GPGSA,A,2,16,21,26,27,31,,,,,,,,1.5,1.2,0.8*3B


$GPGSV,4,1,13,04,,,37,08,23,203,17,09,19,314,27,14,12,160,21*40


$GPGSV,4,2,13,26,45,039,41,31,29,104,42,16,62,352,,21,14,074,*7F


$GPGSV,4,3,13,22,,,,23,49,282,,27,61,180,,42,,,38*7E


$GPGSV,4,4,13,50,,,38*75


$GPGGA,032639.00,3205.102278,N,11846.356593,E,1,05,1.2,12.3,M,2.0,M,,*6A


$GPVTG,0.0,T,4.7,M,0.0,N,0.0,K,A*20


$GPRMC,032639.00,A,3205.102278,N,11846.356593,E,0.0,0.0,070518,4.7,W,A*2D


$GPGSA,A,2,16,21,26,27,31,,,,,,,,1.5,1.2,0.8*3B


$GPGSV,4,1,13,04,,,36,08,23,203,17,09,19,314,28,14,12,160,21*4E


$GPGSV,4,2,13,21,14,074,28,26,45,039,41,27,61,180,24,31,29,104,42*7F


$GPGSV,4,3,13,16,62,352,,22,,,,23,49,282,,42,,,37*7D


$GPGSV,4,4,13,50,,,38*75


$GPGGA,032640.00,3205.102266,N,11846.356598,E,1,04,1.4,12.3,M,2.0,M,,*67


$GPVTG,0.0,T,4.7,M,0.0,N,0.0,K,A*20


$GPRMC,032640.00,A,3205.102266,N,11846.356598,E,0.0,0.0,070518,4.7,W,A*27


$GPGSA,A,2,21,26,27,31,,,,,,,,,1.6,1.4,0.8*39


$GPGSV,4,1,13,04,,,35,08,23,203,17,09,19,314,28,14,12,160,21*4D


$GPGSV,4,2,13,16,62,352,25,21,14,074,29,26,45,039,40,27,61,180,26*77


$GPGSV,4,3,13,31,29,104,42,22,,,,23,49,282,,42,,,38*7F


$GPGSV,4,4,13,50,,,37*7A


$GPGGA,032641.00,3205.102260,N,11846.356605,E,1,05,1.2,12.3,M,2.0,M,,*60


$GPVTG,0.0,T,4.7,M,0.0,N,0.0,K,A*20


$GPRMC,032641.00,A,3205.102260,N,11846.356605,E,0.0,0.0,070518,4.7,W,A*27


$GPGSA,A,2,16,21,26,27,31,,,,,,,,1.5,1.2,0.8*3B


$GPGSV,4,1,13,04,,,35,08,23,203,17,09,19,314,29,14,12,160,21*4C


$GPGSV,4,2,13,16,62,352,26,21,14,074,30,26,45,039,40,27,61,180,26*7C


$GPGSV,4,3,13,31,29,104,42,22,,,,23,49,282,,42,,,38*7F


$GPGSV,4,4,13,50,,,37*7A


$GPGGA,032642.00,3205.102251,N,11846.356612,E,1,05,1.2,12.3,M,2.0,M,,*67


$GPVTG,0.0,T,4.7,M,0.0,N,0.0,K,A*20


$GPRMC,032642.00,A,3205.102251,N,11846.356612,E,0.0,0.0,070518,4.7,W,A*20


$GPGSA,A,2,16,21,26,27,31,,,,,,,,1.5,1.2,0.8*3B


$GPGSV,4,1,13,04,,,34,08,23,203,17,09,19,314,30,14,12,160,21*45


$GPGSV,4,2,13,16,62,352,25,21,14,074,29,26,45,039,40,27,61,180,26*77


$GPGSV,4,3,13,31,29,104,42,22,,,,23,49,282,,42,,,37*70


$GPGSV,4,4,13,50,,,38*75


$GPGGA,032643.00,3205.102238,N,11846.356595,E,1,05,1.2,12.3,M,2.0,M,,*65


$GPVTG,0.0,T,4.7,M,0.0,N,0.0,K,A*20


$GPRMC,032643.00,A,3205.102238,N,11846.356595,E,0.0,0.0,070518,4.7,W,A*22


$GPGSA,A,2,16,21,26,27,31,,,,,,,,1.5,1.2,0.8*3B


$GPGSV,4,1,13,04,,,34,08,23,203,17,09,19,314,29,14,12,160,21*4D


$GPGSV,4,2,13,21,14,074,30,26,45,039,40,27,61,180,24,31,29,104,43*76


$GPGSV,4,3,13,16,62,352,,22,,,,23,49,282,,42,,,38*72


$GPGSV,4,4,13,50,,,38*75


$GPGGA,032644.00,3205.102228,N,11846.356593,E,1,05,1.2,12.4,M,2.0,M,,*62


$GPVTG,0.0,T,4.7,M,0.0,N,0.0,K,A*20


$GPRMC,032644.00,A,3205.102228,N,11846.356593,E,0.0,0.0,070518,4.7,W,A*22


$GPGSA,A,2,16,21,26,27,31,,,,,,,,1.5,1.2,0.8*3B


$GPGSV,4,1,13,04,,,33,08,23,203,17,09,19,314,29,14,12,160,15*4D


$GPGSV,4,2,13,21,14,074,31,26,45,039,39,31,29,104,43,16,62,352,*73


$GPGSV,4,3,13,22,,,,23,49,282,,27,61,180,,42,,,38*7E


$GPGSV,4,4,13,50,,,37*7A


$GPGGA,032645.00,3205.102213,N,11846.356590,E,1,05,1.2,12.4,M,2.0,M,,*68


$GPVTG,0.0,T,4.7,M,0.0,N,0.0,K,A*20


$GPRMC,032645.00,A,3205.102213,N,11846.356590,E,0.0,0.0,070518,4.7,W,A*28


$GPGSA,A,2,16,21,26,27,31,,,,,,,,1.5,1.2,0.8*3B


$GPGSV,4,1,13,04,,,33,08,23,203,17,09,19,314,31,14,12,160,15*44


$GPGSV,4,2,13,21,14,074,31,26,45,039,40,31,29,104,42,16,62,352,*7C


$GPGSV,4,3,13,22,,,,23,49,282,,27,61,180,,42,,,38*7E


$GPGSV,4,4,13,50,,,38*75


$GPGGA,032646.00,3205.102195,N,11846.356599,E,1,05,1.2,12.5,M,2.0,M,,*6E


$GPVTG,0.0,T,4.7,M,0.0,N,0.0,K,A*20


$GPRMC,032646.00,A,3205.102195,N,11846.356599,E,0.0,0.0,070518,4.7,W,A*2F


$GPGSA,A,2,16,21,26,27,31,,,,,,,,1.5,1.2,0.8*3B


$GPGSV,4,1,13,04,,,32,08,23,203,18,09,19,314,30,14,12,160,15*4B


$GPGSV,4,2,13,21,14,074,31,26,45,039,39,27,61,180,23,31,29,104,40*7D


$GPGSV,4,3,13,16,62,352,,22,,,,23,49,282,,42,,,37*7D


$GPGSV,4,4,13,50,,,38*75


$GPGGA,032647.00,3205.102187,N,11846.356600,E,1,05,1.2,12.5,M,2.0,M,,*6F


$GPVTG,0.0,T,4.7,M,0.0,N,0.0,K,A*20


$GPRMC,032647.00,A,3205.102187,N,11846.356600,E,0.0,0.0,070518,4.7,W,A*2E


$GPGSA,A,2,16,21,26,27,31,,,,,,,,1.5,1.2,0.8*3B


$GPGSV,4,1,13,04,,,31,08,23,203,19,09,19,314,31,14,12,160,15*48


$GPGSV,4,2,13,21,14,074,31,26,45,039,39,27,61,180,24,31,29,104,41*7B


$GPGSV,4,3,13,16,62,352,,22,,,,23,49,282,,42,,,37*7D


$GPGSV,4,4,13,50,,,37*7A


$GPGGA,032648.00,3205.102170,N,11846.356613,E,1,05,1.2,12.5,M,2.0,M,,*6A


$GPVTG,0.0,T,4.7,M,0.0,N,0.0,K,A*20


$GPRMC,032648.00,A,3205.102170,N,11846.356613,E,0.0,0.0,070518,4.7,W,A*2B


$GPGSA,A,2,16,21,26,27,31,,,,,,,,1.5,1.2,0.8*3B


$GPGSV,4,1,13,04,,,32,08,23,203,19,09,19,314,31,14,12,160,18*46


$GPGSV,4,2,13,21,14,074,28,26,45,039,39,27,61,180,23,31,29,104,41*74


$GPGSV,4,3,13,16,62,352,,22,,,,23,49,282,,42,,,37*7D


$GPGSV,4,4,13,50,,,38*75


$GPGGA,032649.00,3205.102155,N,11846.356626,E,1,04,1.4,12.6,M,2.0,M,,*6E


$GPVTG,0.0,T,4.7,M,0.0,N,0.0,K,A*20


$GPRMC,032649.00,A,3205.102155,N,11846.356626,E,0.0,0.0,070518,4.7,W,A*2B


$GPGSA,A,2,21,26,27,31,,,,,,,,,1.6,1.4,0.8*39


$GPGSV,4,1,13,04,,,32,08,23,203,19,09,19,314,30,14,12,160,22*4E


$GPGSV,4,2,13,21,14,074,30,26,45,039,38,27,61,180,23,31,29,104,40*7D


$GPGSV,4,3,13,16,62,352,,22,,,,23,49,282,,42,,,38*72


$GPGSV,4,4,13,50,,,38*75


$GPGGA,032650.00,3205.102141,N,11846.356647,E,1,03,1.6,12.6,M,2.0,M,,*61


$GPVTG,0.0,T,4.7,M,0.0,N,0.0,K,A*20


$GPRMC,032650.00,A,3205.102141,N,11846.356647,E,0.0,0.0,070518,4.7,W,A*21


$GPGSA,A,2,21,26,31,,,,,,,,,,1.8,1.6,0.8*30


$GPGSV,4,1,13,04,,,34,08,23,203,19,09,19,314,29,14,12,160,20*42


$GPGSV,4,2,13,21,14,074,31,26,45,039,38,31,29,104,41,16,62,352,*70


$GPGSV,4,3,13,22,,,,23,49,282,,27,61,180,,42,,,38*7E


$GPGSV,4,4,13,50,,,38*75


$GPGGA,032651.00,3205.102111,N,11846.356693,E,1,03,1.6,12.7,M,2.0,M,,*6D


$GPVTG,0.0,T,4.7,M,0.0,N,0.0,K,A*20


$GPRMC,032651.00,A,3205.102111,N,11846.356693,E,0.0,0.0,070518,4.7,W,A*2C


$GPGSA,A,2,21,26,31,,,,,,,,,,1.8,1.6,0.8*30


$GPGSV,4,1,13,04,,,34,08,23,203,19,09,19,314,28,14,12,160,22*41


$GPGSV,4,2,13,21,14,074,32,26,45,039,38,31,29,104,41,16,62,352,*73


$GPGSV,4,3,13,22,,,,23,49,282,,27,61,180,,42,,,38*7E


$GPGSV,4,4,13,50,,,38*75


$GPGGA,032652.00,3205.102082,N,11846.356744,E,1,03,1.6,12.8,M,2.0,M,,*61


$GPVTG,0.0,T,4.7,M,0.0,N,0.0,K,A*20


$GPRMC,032652.00,A,3205.102082,N,11846.356744,E,0.0,0.0,070518,4.7,W,A*2F


$GPGSA,A,2,21,26,31,,,,,,,,,,1.8,1.6,0.8*30


$GPGSV,4,1,13,04,,,34,08,23,203,19,09,19,314,26,14,12,160,22*4F


$GPGSV,4,2,13,21,14,074,31,26,45,039,39,31,29,104,41,16,62,352,*71


$GPGSV,4,3,13,22,,,,23,49,282,,27,61,180,,42,,,38*7E


$GPGSV,4,4,13,50,,,38*75


$GPGGA,032653.00,3205.102074,N,11846.356756,E,1,03,1.6,12.9,M,2.0,M,,*6B


$GPVTG,0.0,T,4.7,M,0.0,N,0.0,K,A*20


$GPRMC,032653.00,A,3205.102074,N,11846.356756,E,0.0,0.0,070518,4.7,W,A*24


$GPGSA,A,2,21,26,31,,,,,,,,,,1.8,1.6,0.8*30


$GPGSV,4,1,13,04,,,34,08,23,203,19,09,19,314,24,14,12,160,20*4F


$GPGSV,4,2,13,21,14,074,31,26,45,039,39,31,29,104,41,16,62,352,*71


$GPGSV,4,3,13,22,,,,23,49,282,,27,61,180,,42,,,38*7E


$GPGSV,4,4,13,50,,,38*75


$GPGGA,032654.00,3205.102065,N,11846.356779,E,1,03,1.6,12.9,M,2.0,M,,*61


$GPVTG,0.0,T,4.7,M,0.0,N,0.0,K,A*20


$GPRMC,032654.00,A,3205.102065,N,11846.356779,E,0.0,0.0,070518,4.7,W,A*2E


$GPGSA,A,2,21,26,31,,,,,,,,,,1.8,1.6,0.8*30


$GPGSV,4,1,13,04,,,35,08,24,203,19,09,19,313,26,14,12,160,20*4C


$GPGSV,4,2,13,21,14,074,31,26,45,039,38,31,29,104,41,16,62,352,*70


$GPGSV,4,3,13,22,,,,23,49,281,,27,61,180,,42,,,38*7D


$GPGSV,4,4,13,50,,,38*75


$GPGGA,032655.00,3205.102043,N,11846.356824,E,1,04,0.9,13.0,M,2.0,M,,*62


$GPVTG,0.0,T,4.7,M,0.0,N,0.0,K,A*20


$GPRMC,032655.00,A,3205.102043,N,11846.356824,E,0.0,0.0,070518,4.7,W,A*2C


$GPGSA,A,2,09,21,26,31,,,,,,,,,1.2,0.9,0.8*3D


$GPGSV,4,1,13,04,,,34,08,24,203,19,09,19,313,27,14,12,160,20*4C


$GPGSV,4,2,13,16,62,352,24,21,14,074,31,26,45,039,38,31,29,104,41*76


$GPGSV,4,3,13,22,,,,23,49,281,,27,61,180,,42,,,38*7D


$GPGSV,4,4,13,50,,,39*74


$GPGGA,032656.00,3205.102033,N,11846.356853,E,1,04,0.9,13.0,M,2.0,M,,*66


$GPVTG,0.0,T,4.7,M,0.0,N,0.0,K,A*20


$GPRMC,032656.00,A,3205.102033,N,11846.356853,E,0.0,0.0,070518,4.7,W,A*28


$GPGSA,A,2,09,21,26,31,,,,,,,,,1.2,0.9,0.7*32


$GPGSV,4,1,13,04,,,34,08,24,203,19,09,19,313,27,14,12,160,20*4C


$GPGSV,4,2,13,16,62,352,24,21,14,074,30,26,45,039,38,31,29,104,41*77


$GPGSV,4,3,13,22,,,,23,49,281,,27,61,180,,42,,,38*7D


$GPGSV,4,4,13,50,,,38*75


$GPGGA,032657.00,3205.102005,N,11846.356906,E,1,05,0.9,13.1,M,2.0,M,,*63


$GPVTG,0.0,T,4.7,M,0.0,N,0.0,K,A*20


$GPRMC,032657.00,A,3205.102005,N,11846.356906,E,0.0,0.0,070518,4.7,W,A*2D


$GPGSA,A,2,09,16,21,26,31,,,,,,,,1.2,0.9,0.7*35


$GPGSV,4,1,13,04,,,36,08,24,203,19,09,19,313,25,14,12,160,17*48


$GPGSV,4,2,13,16,62,352,26,21,14,074,31,26,45,039,38,27,61,180,25*71


$GPGSV,4,3,13,31,29,104,40,22,,,,23,49,281,,42,,,38*7E


$GPGSV,4,4,13,50,,,38*75


$GPGGA,032658.00,3205.101989,N,11846.356953,E,1,06,0.9,13.2,M,2.0,M,,*62


$GPVTG,0.0,T,4.7,M,0.0,N,0.0,K,A*20


$GPRMC,032658.00,A,3205.101989,N,11846.356953,E,0.0,0.0,070518,4.7,W,A*2C


$GPGSA,A,2,09,16,21,26,27,31,,,,,,,1.1,0.9,0.7*33


$GPGSV,4,1,13,04,,,37,08,24,203,19,09,19,313,26,14,12,160,17*4A


$GPGSV,4,2,13,16,62,352,28,21,14,074,32,26,45,039,38,27,61,180,25*7C


$GPGSV,4,3,13,31,29,104,39,22,,,,23,49,281,,42,,,38*70


$GPGSV,4,4,13,50,,,38*75


$GPGGA,032659.00,3205.101969,N,11846.356997,E,1,06,0.9,13.3,M,2.0,M,,*64


$GPVTG,0.0,T,4.7,M,0.0,N,0.0,K,A*20


$GPRMC,032659.00,A,3205.101969,N,11846.356997,E,0.0,0.0,070518,4.7,W,A*2B


$GPGSA,A,2,09,16,21,26,27,31,,,,,,,1.1,0.9,0.7*33


$GPGSV,4,1,13,04,,,38,08,24,203,19,09,19,313,26,14,12,160,17*45


$GPGSV,4,2,13,16,62,352,26,21,14,074,32,26,45,039,38,27,61,180,24*73


$GPGSV,4,3,13,31,29,104,39,22,,,,23,49,281,,42,,,38*70


$GPGSV,4,4,13,50,,,38*75


$GPGGA,032700.00,3205.101945,N,11846.357036,E,1,06,0.9,13.4,M,2.0,M,,*63


$GPVTG,0.0,T,4.7,M,0.0,N,0.0,K,A*20


$GPRMC,032700.00,A,3205.101945,N,11846.357036,E,0.0,0.0,070518,4.7,W,A*2B


$GPGSA,A,2,09,16,21,26,27,31,,,,,,,1.1,0.9,0.7*33


$GPGSV,4,1,13,04,,,38,08,24,203,19,09,19,313,25,14,12,160,18*49


$GPGSV,4,2,13,16,62,352,29,21,14,074,32,26,45,039,39,27,61,180,22*7B


$GPGSV,4,3,13,31,29,104,40,22,,,,23,49,281,,42,,,38*7E


$GPGSV,4,4,13,50,,,38*75


$GPGGA,032701.00,3205.101939,N,11846.357041,E,1,06,0.9,13.4,M,2.0,M,,*69


$GPVTG,0.0,T,4.7,M,0.0,N,0.0,K,A*20


$GPRMC,032701.00,A,3205.101939,N,11846.357041,E,0.0,0.0,070518,4.7,W,A*21


$GPGSA,A,2,09,16,21,26,27,31,,,,,,,1.1,0.9,0.7*33


$GPGSV,4,1,13,04,,,38,08,24,203,19,09,19,313,24,14,12,160,21*42


$GPGSV,4,2,13,16,62,352,24,21,14,074,33,26,45,039,39,27,61,180,22*77


$GPGSV,4,3,13,31,29,104,39,22,,,,23,49,281,,42,,,38*70


$GPGSV,4,4,13,50,,,38*75


$GPGGA,032702.00,3205.101914,N,11846.357078,E,1,06,0.9,13.5,M,2.0,M,,*6E


$GPVTG,0.0,T,4.7,M,0.0,N,0.0,K,A*20


$GPRMC,032702.00,A,3205.101914,N,11846.357078,E,0.0,0.0,070518,4.7,W,A*27


$GPGSA,A,2,09,16,21,26,27,31,,,,,,,1.1,0.9,0.7*33


$GPGSV,4,1,13,04,,,39,08,24,203,19,09,19,313,26,14,12,160,25*45


$GPGSV,4,2,13,16,62,352,27,21,14,074,33,26,45,039,39,27,61,180,21*77


$GPGSV,4,3,13,31,29,104,39,22,,,,23,49,281,,42,,,37*7F


$GPGSV,4,4,13,50,,,38*75


$GPGGA,032703.00,3205.101890,N,11846.357105,E,1,07,0.8,13.6,M,2.0,M,,*6A


$GPVTG,0.0,T,4.7,M,0.0,N,0.0,K,A*20


$GPRMC,032703.00,A,3205.101890,N,11846.357105,E,0.0,0.0,070518,4.7,W,A*20


$GPGSA,A,2,09,14,16,21,26,27,31,,,,,,1.1,0.8,0.7*37


$GPGSV,4,1,13,04,,,39,08,24,203,21,09,19,313,25,14,12,160,23*4B


$GPGSV,4,2,13,16,62,352,26,21,14,074,33,26,45,039,40,27,61,180,21*78


$GPGSV,4,3,13,31,29,104,39,22,,,,23,49,281,,42,,,38*70


$GPGSV,4,4,13,50,,,37*7A


$GPGGA,032704.00,3205.101879,N,11846.357111,E,1,07,0.8,13.7,M,2.0,M,,*6E


$GPVTG,0.0,T,4.7,M,0.0,N,0.0,K,A*20


$GPRMC,032704.00,A,3205.101879,N,11846.357111,E,0.0,0.0,070518,4.7,W,A*25


$GPGSA,A,2,09,14,16,21,26,27,31,,,,,,1.1,0.8,0.7*37


$GPGSV,4,1,13,04,,,39,08,24,203,22,09,19,313,26,14,12,160,25*4D


$GPGSV,4,2,13,16,62,352,27,21,14,074,33,26,45,039,39,27,61,180,22*74


$GPGSV,4,3,13,31,29,104,39,22,,,,23,49,281,,42,,,38*70


$GPGSV,4,4,13,50,,,37*7A


$GPGGA,032705.00,3205.101856,N,11846.357141,E,1,07,0.8,13.8,M,2.0,M,,*68


$GPVTG,0.0,T,4.7,M,0.0,N,0.0,K,A*20


$GPRMC,032705.00,A,3205.101856,N,11846.357141,E,0.0,0.0,070518,4.7,W,A*2C


$GPGSA,A,2,09,14,16,21,26,27,31,,,,,,1.1,0.8,0.7*37


$GPGSV,4,1,13,04,,,39,08,24,203,22,09,19,313,25,14,12,160,25*4E


$GPGSV,4,2,13,16,62,352,28,21,14,074,33,26,45,039,39,27,61,180,22*7B


$GPGSV,4,3,13,31,29,104,39,22,,,,23,49,281,,42,,,38*70


$GPGSV,4,4,13,50,,,38*75


$GPGGA,032706.00,3205.101849,N,11846.357145,E,1,06,0.9,13.8,M,2.0,M,,*61


$GPVTG,0.0,T,4.7,M,0.0,N,0.0,K,A*20


$GPRMC,032706.00,A,3205.101849,N,11846.357145,E,0.0,0.0,070518,4.7,W,A*25


$GPGSA,A,2,09,14,16,21,26,31,,,,,,,1.1,0.9,0.7*33


$GPGSV,4,1,13,04,,,40,08,24,203,22,09,19,313,25,14,12,160,25*40


$GPGSV,4,2,13,16,62,352,27,21,14,074,33,26,45,039,40,27,61,180,25*7D


$GPGSV,4,3,13,31,29,104,40,22,,,,23,49,281,,42,,,38*7E


$GPGSV,4,4,13,50,,,37*7A


$GPGGA,032707.00,3205.101825,N,11846.357181,E,1,07,0.8,13.9,M,2.0,M,,*63


$GPVTG,0.0,T,4.7,M,0.0,N,0.0,K,A*20


$GPRMC,032707.00,A,3205.101825,N,11846.357181,E,0.0,0.0,070518,4.7,W,A*26


$GPGSA,A,2,09,14,16,21,26,27,31,,,,,,1.1,0.8,0.7*37


$GPGSV,4,1,13,04,,,40,08,24,203,20,09,19,313,25,14,12,160,27*40


$GPGSV,4,2,13,16,62,352,28,21,14,074,33,22,,,17,26,45,039,39*46


$GPGSV,4,3,13,27,61,180,25,31,29,104,40,23,49,281,,42,,,38*42


$GPGSV,4,4,13,50,,,37*7A


$GPGGA,032708.00,3205.101812,N,11846.357193,E,1,07,0.8,14.0,M,2.0,M,,*65


$GPVTG,0.0,T,4.7,M,0.0,N,0.0,K,A*20


$GPRMC,032708.00,A,3205.101812,N,11846.357193,E,0.0,0.0,070518,4.7,W,A*2E


$GPGSA,A,2,09,14,16,21,26,27,31,,,,,,1.1,0.8,0.7*37


$GPGSV,4,1,13,04,,,40,08,24,203,20,09,19,313,25,14,12,160,27*40


$GPGSV,4,2,13,16,62,352,27,21,14,074,33,22,,,17,26,45,039,40*47


$GPGSV,4,3,13,27,61,180,25,31,29,104,39,23,49,281,,42,,,38*4C


$GPGSV,4,4,13,50,,,38*75


$GPGGA,032709.00,3205.101782,N,11846.357223,E,1,07,0.8,14.1,M,2.0,M,,*6B


$GPVTG,0.0,T,4.7,M,0.0,N,0.0,K,A*20


$GPRMC,032709.00,A,3205.101782,N,11846.357223,E,0.0,0.0,070518,4.7,W,A*21


$GPGSA,A,2,09,14,16,21,26,27,31,,,,,,1.1,0.8,0.7*37


$GPGSV,4,1,13,04,,,39,08,24,203,20,09,19,313,24,14,12,160,25*4D


$GPGSV,4,2,13,16,62,352,29,21,14,074,33,22,,,17,26,45,039,39*47


$GPGSV,4,3,13,27,61,180,23,31,29,104,41,23,49,281,,42,,,38*45


$GPGSV,4,4,13,50,,,38*75


$GPGGA,032710.00,3205.101765,N,11846.357236,E,1,07,0.8,14.2,M,2.0,M,,*6D


$GPVTG,0.0,T,4.7,M,0.0,N,0.0,K,A*20


$GPRMC,032710.00,A,3205.101765,N,11846.357236,E,0.0,0.0,070518,4.7,W,A*24


$GPGSA,A,2,09,14,16,21,26,27,31,,,,,,1.1,0.8,0.7*37


$GPGSV,4,1,13,04,,,38,08,24,203,19,09,19,313,25,14,12,160,26*44


$GPGSV,4,2,13,16,62,352,30,21,14,074,32,22,,,17,26,45,039,40*40


$GPGSV,4,3,13,27,61,180,24,31,29,104,41,23,49,281,,42,,,38*42


$GPGSV,4,4,13,50,,,38*75


$GPGGA,032711.00,3205.101359,N,11846.357797,E,1,07,0.8,14.4,M,2.0,M,,*6F


$GPVTG,128.2,T,132.9,M,0.0,N,0.0,K,A*23


$GPRMC,032711.00,A,3205.101359,N,11846.357797,E,0.0,128.2,070518,4.7,W,A*29


$GPGSA,A,2,09,14,16,21,26,27,31,,,,,,1.1,0.8,0.7*37


$GPGSV,4,1,13,04,,,37,08,24,203,19,09,19,313,23,14,12,160,26*4D


$GPGSV,4,2,13,16,62,352,29,21,14,074,31,22,,,17,26,45,039,40*4B


$GPGSV,4,3,13,27,61,180,24,31,29,104,39,23,49,281,,42,,,38*4D


$GPGSV,4,4,13,50,,,38*75


$GPGGA,032712.00,3205.101119,N,11846.358226,E,1,07,0.8,14.5,M,2.0,M,,*6B


$GPVTG,128.2,T,132.9,M,0.0,N,0.0,K,A*23


$GPRMC,032712.00,A,3205.101119,N,11846.358226,E,0.0,128.2,070518,4.7,W,A*2C


$GPGSA,A,2,09,14,16,21,26,27,31,,,,,,1.1,0.8,0.7*37


$GPGSV,4,1,13,04,,,38,08,24,203,19,09,19,313,23,14,12,160,25*41


$GPGSV,4,2,13,16,62,352,29,21,14,074,30,22,,,18,26,45,039,40*45


$GPGSV,4,3,13,27,61,180,23,31,29,104,39,23,49,281,,42,,,37*45


$GPGSV,4,4,13,50,,,38*75


$GPGGA,032713.00,3205.100906,N,11846.358500,E,1,07,0.8,14.6,M,2.0,M,,*6D


$GPVTG,128.2,T,132.9,M,0.0,N,0.0,K,A*23


$GPRMC,032713.00,A,3205.100906,N,11846.358500,E,0.0,128.2,070518,4.7,W,A*29


$GPGSA,A,2,09,14,16,21,26,27,31,,,,,,1.1,0.8,0.7*37


$GPGSV,4,1,13,04,,,38,08,24,203,19,09,19,313,23,14,12,160,25*41


$GPGSV,4,2,13,16,62,352,27,21,14,074,30,22,,,18,26,45,039,40*4B


$GPGSV,4,3,13,27,61,180,25,31,29,104,39,23,49,281,,42,,,38*4C


$GPGSV,4,4,13,50,,,38*75


$GPGGA,032714.00,3205.100816,N,11846.358882,E,1,07,0.8,14.7,M,2.0,M,,*6C


$GPVTG,128.2,T,132.9,M,0.0,N,0.0,K,A*23


$GPRMC,032714.00,A,3205.100816,N,11846.358882,E,0.0,128.2,070518,4.7,W,A*29


$GPGSA,A,2,09,14,16,21,26,27,31,,,,,,1.1,0.8,0.7*37


$GPGSV,4,1,13,04,,,38,08,24,203,19,09,19,313,23,14,12,160,25*41


$GPGSV,4,2,13,16,62,352,27,21,14,074,30,22,,,18,26,45,039,40*4B


$GPGSV,4,3,13,27,61,180,25,31,29,104,38,23,49,281,,42,,,38*4D


$GPGSV,4,4,13,50,,,38*75


$GPGGA,032715.00,3205.100817,N,11846.359475,E,1,07,0.8,14.8,M,2.0,M,,*66


$GPVTG,128.2,T,132.9,M,0.0,N,0.0,K,A*23


$GPRMC,032715.00,A,3205.100817,N,11846.359475,E,0.0,128.2,070518,4.7,W,A*2C


$GPGSA,A,2,09,14,16,21,26,27,31,,,,,,1.1,0.8,0.7*37


$GPGSV,4,1,13,04,,,37,08,24,203,19,09,19,313,19,14,12,160,25*47


$GPGSV,4,2,13,16,62,352,27,21,14,074,31,22,,,18,26,45,039,40*4A


$GPGSV,4,3,13,27,61,180,22,31,29,104,40,23,49,281,,42,,,38*45


$GPGSV,4,4,13,50,,,37*7A


$GPGGA,032716.00,3205.100758,N,11846.359763,E,1,07,0.8,14.9,M,2.0,M,,*64


$GPVTG,128.2,T,132.9,M,0.0,N,0.0,K,A*23


$GPRMC,032716.00,A,3205.100758,N,11846.359763,E,0.0,128.2,070518,4.7,W,A*2F


$GPGSA,A,2,09,14,16,21,26,27,31,,,,,,1.1,0.8,0.7*37


$GPGSV,4,1,13,04,,,37,08,24,203,19,09,19,313,25,14,12,160,27*4A


$GPGSV,4,2,13,16,62,352,25,21,14,074,31,22,,,18,26,45,039,40*48


$GPGSV,4,3,13,27,61,180,24,31,29,104,38,23,49,281,,42,,,38*4C


$GPGSV,4,4,13,50,,,38*75


$GPGGA,032717.00,3205.100682,N,11846.359991,E,1,07,0.8,15.0,M,2.0,M,,*68


$GPVTG,128.2,T,132.9,M,0.0,N,0.0,K,A*23


$GPRMC,032717.00,A,3205.100682,N,11846.359991,E,0.0,128.2,070518,4.7,W,A*2B


$GPGSA,A,2,09,14,16,21,26,27,31,,,,,,1.1,0.8,0.7*37


$GPGSV,4,1,13,04,,,37,08,24,203,19,09,19,313,24,14,12,160,28*44


$GPGSV,4,2,13,16,62,352,25,21,14,074,33,22,,,18,26,45,039,40*4A


$GPGSV,4,3,13,31,29,104,39,23,49,281,,27,61,180,,42,,,38*4B


$GPGSV,4,4,13,50,,,38*75


$GPGGA,032718.00,3205.100469,N,11846.359920,E,1,07,0.8,14.9,M,2.0,M,,*62


$GPVTG,128.2,T,132.9,M,0.0,N,0.0,K,A*23


$GPRMC,032718.00,A,3205.100469,N,11846.359920,E,0.0,128.2,070518,4.7,W,A*29


$GPGSA,A,2,09,14,16,21,26,27,31,,,,,,1.1,0.8,0.7*37


$GPGSV,4,1,13,04,,,36,08,24,203,21,09,19,313,25,14,12,160,30*46


$GPGSV,4,2,13,21,14,074,31,22,,,18,26,45,039,40,27,61,180,24*45


$GPGSV,4,3,13,31,29,104,38,16,62,352,,23,49,281,,42,,,38*46


$GPGSV,4,4,13,50,,,37*7A


$GPGGA,032719.00,3205.100290,N,11846.359755,E,1,07,0.8,14.9,M,2.0,M,,*6F


$GPVTG,128.2,T,132.9,M,0.0,N,0.0,K,A*23


$GPRMC,032719.00,A,3205.100290,N,11846.359755,E,0.0,128.2,070518,4.7,W,A*24


$GPGSA,A,2,09,14,16,21,26,27,31,,,,,,1.1,0.8,0.7*37


$GPGSV,4,1,13,04,,,35,08,24,203,21,09,19,313,25,14,12,160,29*4D


$GPGSV,4,2,13,21,14,074,32,22,,,18,26,45,039,40,27,61,180,25*47


$GPGSV,4,3,13,31,29,104,39,16,62,352,,23,49,281,,42,,,38*47


$GPGSV,4,4,13,50,,,38*75


$GPGGA,032720.00,3205.100079,N,11846.359555,E,1,07,0.8,14.8,M,2.0,M,,*63


$GPVTG,128.2,T,132.9,M,0.0,N,0.0,K,A*23


$GPRMC,032720.00,A,3205.100079,N,11846.359555,E,0.0,128.2,070518,4.7,W,A*29


$GPGSA,A,2,09,14,16,21,26,27,31,,,,,,1.1,0.8,0.7*37


$GPGSV,4,1,13,04,,,34,08,24,203,21,09,19,313,27,14,12,160,28*4F


$GPGSV,4,2,13,21,14,074,33,22,,,18,26,45,039,40,27,61,180,25*46


$GPGSV,4,3,13,31,29,104,40,16,62,352,,23,49,281,,42,,,37*46


$GPGSV,4,4,13,50,,,38*75


$GPGGA,032721.00,3205.099849,N,11846.359236,E,1,07,0.8,14.8,M,2.0,M,,*6A


$GPVTG,128.2,T,132.9,M,0.0,N,0.0,K,A*23


$GPRMC,032721.00,A,3205.099849,N,11846.359236,E,0.0,128.2,070518,4.7,W,A*20


$GPGSA,A,2,09,14,16,21,26,27,31,,,,,,1.1,0.8,0.7*37


$GPGSV,4,1,13,04,,,35,08,24,203,19,09,19,313,26,14,12,160,30*4D


$GPGSV,4,2,13,21,14,074,29,22,,,18,26,45,039,40,27,61,180,24*4C


